sigla|iata|nombre|municipio|departamento|categoria|latitud|longitud|propietario|explotador|longitud_pista|ancho_pista|pbmo|orientacion|elevacion|resolucion|fecha_construccion|fecha_vigencia|clase|tipo|numero_vuelos_origen|gcd_departamento|gcd_municipio
4JC||JUANCHACO|Buenaventura|Valle del Cauca|Aeródromo|||||||||||||||24|76|76109
7FO||LA ISLA|Puerto Gaitán|Meta|Aeródromo|4.4211|-71.6271|LA ISLA Y EL ROSARIO S.A.|LA CEIBA S.A.|800|10|3000||538| 1325,000|2015-06-05|2018-06-11|1A|Privado|2|50|50568
7FU||LA ESCONDIDA|Puerto Gaitán|Meta|Aeródromo|4.6108|-71.1935|PALMAS SICARARE S.A.S.|COSARGO S.A.S.|1300|18|5000||564| 1843,000|2013-04-26|2016-05-07|1A|Fumigación|30|50|50568
7FW||MORICHITO|Hato Corozal|Casanare|Aeródromo|5.9188|-71.7932|CARMEN NARANJO|ROBERTO C. RIAÑO P.|800|15|3500||720| 2220,000|2009-05-07||1A|Privado||85|85125
7FX||CAROLINA DEL PRINCIPE|Carolina|Antioquia|Aeródromo|6.7248|-75.2909|MUNICIPIO|MUNICIPIO|400|16|1000||6004| 6470,000|2013-11-19||1A|Público|| 5| 5150
7FY||DUBAI|Ayapel|Córdoba|Aeródromo|8.296|-75.0307|ANDRES D. LONDOÑO T.|ANDRES D. LONDOÑO T.|350|10|500||82| 1212,000|2013-03-20||1A|Privado||23|23068
7FZ||EL TRIUNFO|Orocué|Casanare|Aeródromo|4.8095|-71.667|ERNESTO J. PEREZ VILLAMIZAR|EL MISMO|880|15|3000||475| 5532,000|2014-11-11||1A|Privado|2|85|85230
7GA||BARU - HIDROPUERTO|Cartagena de Indias|Bolívar|Aeródromo|10.2321|-75.5877|MAURICIO E. VASQUEZ M.|EL MISMO|450|20|500||0| 6067,000|2012-10-25|2015-11-07|1A|Privado||13|13001
7GB||LA CAROLINA|El Paso|Cesar|Aeródromo|9.528|-73.7866|JORGE AGUDELO RESTREPO|JORGE AGUDELO REST.|350|10|500||690| 5474,000|2009-10-06||UL|Privado||20|20250
7GC||SAN FELIPE DEL PAUTO|Trinidad|Casanare|Aeródromo|5.2032|-70.8951|AGRAS S.A.S|AGRAS S.A.S|720|10|3000||3125| 4505,000|2012-08-16||1A|Privado|153|85|85430
7GD||VELASQUEZ|Puerto Boyacá|Boyacá|Aeródromo|5.9482|-74.4575|FAC|MANSAROVAR|1500|18|10000||617| 2135,000|2013-05-16||3C|Privado|2325|15|15572
7GE||LUCITANIA|Orocué|Casanare|Aeródromo|4.6954|-71.589|AGROPECUARIA CRAVO SUR|AGROPECUARIA CRAVO SUR|650|18|3000||443| 1051,000|2014-02-28|2017-03-03|1A|Privado||85|85230
7GF||LA UNION|Paz de Ariporo|Casanare|Aeródromo|5.6283|-70.7032|MARTHA Y. VARGAS DE R.|GEOPARK CUERVA|640|18|3500||335| 2136,000|2013-05-16||1A|Privado|1122|85|85250
7GG||LA ILUSION|Maní|Casanare|Aeródromo|4.5805|-72.4282|SIGRA S.A.|SIGRA S.A.|890|18|3500||574| 1944,000|2013-05-03|2016-05-10|1A|Privado|2|85|85139
7GH||LA VENTUROSA|Puerto Carreño|Vichada|Aeródromo|6.1391|-68.7779|MUNICIPIO|GOBERNACION|1000|12|9500||246| 6782,000|2013-12-05||1A|Público|54|99|99001
7GI||GUAYABAL DEL CRAVO|Orocué|Casanare|Aeródromo|4.7223|-71.5943|KLAUS PUTH ARANGUREN|KLAUS PUTH ARANGUREN|750|12|2500||442| 3710,000|2013-07-24|2016-08-01|1A|Privado|1|85|85230
7GK||LAS VIOLETAS- CA|Castilla la Nueva|Meta|Aeródromo|3.8519|-73.7286|FRANCELINA CADENA|AEROCLUB DEL META|350|10|500||609| 4132,000|2010-08-19||UL|Privado||50|50150
7GL||LA JAGUA|La Jagua de Ibirico|Cesar|Aeródromo|9.5905|-73.2886|CARBONES DE LA JAGUA S.A.|CARBO. DE LA JAGUA S.A.|1200|18|7500||787|  171,000|2015-01-27|2018-02-06|2A|Privado|1070|20|20400
7GN||LOS MANGOS|Ayapel|Córdoba|Aeródromo|8.2956|-75.0987|MANUEL LOPEZ ORTEGA|MANUEL LOPEZ ORTEGA|200|10|500||90| 5190,000|2013-09-24||UL|Privado||23|23068
7GO||MATABRAVA|San Luis de Palenque|Casanare|Aeródromo|5.2132|-71.6915|FRANCISCA REYES DIAZ|FRANCISCA REYES DIAZ|600|10|2000||524| 5966,000|2014-12-15||1A|Privado|1|85|85325
7GP||EL PORVENIR - CA|Pijiño del Carmen|Magdalena|Aeródromo|9.491|-74.1909|LA CEIBA S.A.|LA CEIBA S.A.|300|10|500||176|  236,000|2014-01-21||UL|Privado||47|47545
7GQ||LA PROVINCIA|Paz de Ariporo|Casanare|Aeródromo|5.6918|-70.11|CARLOS H. MONTENEGRO|CARLOS H. MONTENEGRO|670|15|2500||430|  399,000|2014-01-31||1A|Privado||85|85250
7GS||EL ENCANTO|Cumaribo|Vichada|Aeródromo|4.6934|-70.9078|JUAN AQUILINO PEREZ P.|EL ENCANTO 1 S.A.S.|1200|20|5000||544| 5964,000|2014-12-15||1A|Fumigación|376|99|99773
7GU||HATO GARIBAY|Maní|Casanare|Aeródromo|4.4656|-72.3273|AGROPECUARIA LA TAGUA|ROBERTO HERRERA OBREGON|750|10|5500||482| 4212,000|2014-08-06||1A|Privado||85|85139
7GV||REPRESA DE LAS CANARIAS|Paz de Ariporo|Casanare|Aeródromo|5.7658|-71.2503|OLGA BRAVO DE CANTOR|OLGA BRAVO DE CANTOR|610|15|3500||652| 5236,000|2014-10-14|2017-12-01|1A|Privado|6|85|85250
7GX||LA ATARRAYA - CA.|Ayapel|Córdoba|Aeródromo|8.2857|-75.0963|FELIPE BRAVO BOTERO|FELIPE BRAVO BOTERO|210|10|500||91| 5714,000|2014-11-25||UL|Privado||23|23068
7GY||LAS ACACIAS|Nemocón|Cundinamarca|Aeródromo|5.0949|-73.9054|JUAN BERNANDO SANINT G|EL MISMO|1350|20|10000||8431|  439,000|2015-02-27|2018-03-05|3A|Privado||25|25486
7GZ||COROZITO|Maní|Casanare|Aeródromo|4.6701|-72.0994|INVERSIONES LA PALMERA DE COROZITO|INV.LA PALMERA DE COROZITO|1200|18|||497|  832,000|2015-04-14||2A|Privado|161|85|85139
7HA||EL CONDOR|Flandes|Tolima|Aeródromo|4.2595|-74.8308|AEROTURBO DE COLOMBIA|LUIS FDO. BARRETO CAVIEDES|280|10|500||992| 5730,000|2012-10-09|2015-12-03|UL|Privado||73|73275
7HB||HOTEL SAN DIEGO|Puerto Gaitán|Meta|Aeródromo|3.7693|-71.8179|MADYGAN S.A.S.|MADYGAN S.A.S.|800|18|4000||725| 6730,000|2012-11-26|2015-12-03|2A|Privado|92|50|50568
7HC||EL CAFUCHE|La Primavera|Vichada|Aeródromo|5.3152|-70.0184|ANDRES CARVAJAL MOLINA|ANDRES CARVAJAL MOLINA|850|18|4000||384| 3826,000|2013-07-30|2016-08-01|1A|Privado|1|99|99524
7HD||BOSQUES DE LA PRIMAVERA|La Primavera|Vichada|Aeródromo|5.3489|-69.7467|MARIA A. RIVERA AGUDELO|MARIA A. RIVERA AGUDELO|800|18|3000||396| 1444,000|2015-06-17||1A|Privado||99|99524
7HE||GUACHARACAS (COLOMBAIMA)|Beltrán|Cundinamarca|Aeródromo|4.7371|-74.8021|EMPRESA GUACHARACAS|CCA. LTDA|700|10|3000||797| 5920,000|2012-10-19||1A|Privado|1|25|25086
7HF||GAVILAN DE LA PASCUA|La Primavera|Vichada|Aeródromo|5.1166|-70.3806|RESGUARDO INDIGENA ORIPGA|RES. INDIGENA ORIPGA|1200|15|3500||419| 7257,000|2012-12-20||1A|Público|85|99|99524
7HG||DOROTEA B1|Paz de Ariporo|Casanare|Aeródromo|5.5122|-71.0248|NEW GRANADA ENERGY|NEW GRANADA ENERGY|1000|18|||404| 2362,000|2013-05-27||2A|Privado|1029|85|85250
7HH||HORIZONTES|Piedecuesta|Santander|Aeródromo|7.0017|-73.1037|DESARROLLOS METROPOLITANOS|DESARROLLOS METROPOLITANOS|610|12|3500||4195| 5186,000|2013-09-24||1A|Privado||68|68547
7HJ||MACOLLA|Maní|Casanare|Aeródromo|4.7713|-72.0714|GRAMERCY S.A.S.|AGROPECUARIA CACOLLA S.A.S.|950|18|5000||548| 2134,000|2013-05-16||1A|Privado|12|85|85139
7HK||MULETOS- CA|Maní|Casanare|Aeródromo|4.5549|-72.1753|MULETOS S.A.S.|MULETOS S.A.S.|350|10|500||790| 2142,000|2013-05-16||UL|Privado||85|85139
7HL||LA MAPORA|Pore|Casanare|Aeródromo|5.6459|-71.9887|PAULA ANDREA CANO A.|PAULA ANDREA CANO|350|10|500||497| 2199,000|2013-05-17||1A|Privado||85|85263
7HM||LLANO CAUCHO|Cumaribo|Vichada|Aeródromo|4.4355|-70.6954|AGROINDUSTRIALES DEL ORIENTE|AGROINVERSIONES DEL ORIENTE S.A.S|900|15|12000||434| 5189,000|2013-09-24||1A|Privado|10|99|99773
7HN||ARMENIA|Paz de Ariporo|Casanare|Aeródromo|5.787|-70.1835|LUIS JOSE CALA LOPEZ|LUIS JOSE CALA LOPEZ|800|15|3000||380| 4734,000|2013-09-06||1A|Privado||85|85250
7HO||EDGAR CALDAS POTES-CA|Calima|Valle del Cauca|Aeródromo|3.9159|-76.4813|ALEJANDRO A. CALDAS V.|ALEJANDRO A. CALDAS V.|350|10|400||1462| 1311,000|2014-03-13||1A|Privado||76|76126
7HQ||GENERAL ADELMO RUIZ M.|Ricaurte|Cundinamarca|Aeródromo|4.35|-74.7511|EDUARDO A. VIVEROS|ACAF|210|15|500||987|   46,000|2014-01-08||1A|Privado||25|25612
7HR||RANCHO COLIBRI - CA|Roldanillo|Valle del Cauca|Aeródromo|4.4586|-76.1258|HENRY D. F. ORTIZ SILVA|HENRY D. F. ORTIZ SILVA|215|10|500||3083| 7091,000|2013-12-19|2017-01-09|1A|Privado||76|76622
7HS||CASTILLO - CA|Manatí|Atlántico|Aeródromo|10.4089|-74.9963|DIANA MARIA SOLANO D.|DIANA MARIA SOLANO D.|360|10|500||20|  706,000|2014-02-12||1A|Privado|| 8| 8436
7HT||MANARE|Paz de Ariporo|Casanare|Aeródromo|5.9761|-70.1575|HERNAN GOMEZ NIÑO|HERNAN GOMEZ NIÑO|1100|23|4000||334| 1577,000|2014-03-26||1A|Privado|19|85|85250
7HU||GUANAGUANARE|La Primavera|Vichada|Aeródromo|5.4739|-69.9014|INVERSIONES GUANAGUANARE|INV. GUANAGUANARE|800|10|5000||400| 2132,000|2014-04-25||1A|Privado||99|99524
7HV||LA BENDICION|La Primavera|Vichada|Aeródromo|6.0627|-69.1783|SERGIO ANDRES ESPINOSA F.|SERGIO A. ESPINOSA FLOREZ|1200|15|5000||360| 2498,000|2014-05-12||1A|Privado|47|99|99524
7HW||CABARALEZ|Puerto Wilches|Santander|Aeródromo|7.3283|-73.7965|RICARDO FIGUEREDO M.|RICARDO FOGUEREDO M.|700|12|3500||324| 3060,000|2014-06-10||1A|Privado||68|68575
7HX||PIVIJAY|La Primavera|Vichada|Aeródromo|5.1288|-69.9716|FERNANDO CUSTAS PATACON|FERNANDO CUSTAS P.|900|20|3500||426| 3063,000|2014-06-10||1A|Privado|8|99|99524
7HY||HOTEL DEL CAMPO - CA|Quimbaya|Quindío|Aeródromo|4.6123|-75.8132|JUAN B. URIBE S.|LUIS BERRENECHE RIVERA|180|10|500||3828| 2492,000|2014-05-12|2017-07-09|1A|Privado||63|63594
7HZ||MAXIMENA|Maní|Casanare|Aeródromo|4.4723|-72.1094|PALMERAS MAXIMENA S.A.S|PALMERAS MAXIMENA|1300|18|5000||426| 4213,000|2014-08-06||1A|Privado||85|85139
7IA||MURIBA|Maní|Casanare|Aeródromo|4.5809|-72.2551|VITIS OLEI S.A.S.|VITIS OLEI S.A.S.|1300|18|5000||432| 4214,000|2014-08-06||1A|Privado||85|85139
7IB||MAJAGUILLO|Orocué|Casanare|Aeródromo|4.832|-71.6902|FELIPE GOMEZ H. y CIA.|FELIPE GOMEZ H. y CIA.|1000|20|4800||499| 5386,000|2014-10-28|2017-11-05|1A|Privado||85|85230
7IC||VOLAR COLOMBIA|La Pintada|Antioquia|Aeródromo|5.7735|-75.603|CRISTIAN CAMILO MONCADA A.|CRISTIAN C. MONCADA A.|260|8|500||2559|   11,000|2015-01-05||1A|Privado|| 5| 5390
7ID||LA MACOYA|Yopal|Casanare|Aeródromo|5.2262|-72.1478|ELSON HERNANDO SIERRA|ELSON H. SIERRA QUICENO|580|15|3000||474|    9,000|2015-01-05||1A|Privado||85|85001
7IE||LIMA|Fundación|Magdalena|Aeródromo|10.3794|-74.1114|JORGE SOLANO RECIO|JORGE SOLANO RECIO|700|16|3500||395|   10,000|2015-01-05||1A|Privado||47|47288
7IF||LOS VENADOS|La Primavera|Vichada|Aeródromo|5.0666|-69.9988|GUILLERMO FRANCO RESTREPO|GUILLERMO FRANCO R.|1560|23|6500||475|  515,000|2015-03-10||2A|Privado||99|99524
7IG||LA FORTUNA 1|San Martín|Meta|Aeródromo|3.611|-72.3412|LUIS C. CASTRO M.|RAFAEL FDO. GAVIRIA A.|800|18|4000||482|  640,000|2015-03-20||1A|Privado||50|50689
7IH||LOS KIOSCOS|Puerto Gaitán|Meta|Aeródromo|3.4747|-72.2349|MARTHA I. PABON PADILLA|MARTHA I. PABON PADILLA|800|12|5000||770|  690,000|2015-03-31||1A|Privado||50|50568
7II|ECO|EL ENCANTO|El Encanto|Amazonas|Aeródromo|-1.7525|-73.2058|GOBERNACION|GOBERNACION|780|20|5000||406|  830,000|2015-04-15||1A|Público||91|91263
7IJ||LA LORENA|Paz de Ariporo|Casanare|Aeródromo|5.6092|-70.421|BUSHIRO TAKEMOTO|BUSHIRO TAKEMOTO|800|15|3000||347| 1443,000|2015-06-17||1A|Privado||85|85250
7NP||EL CAIRANO|Santa Catalina|Bolívar|Aeródromo|10.7124|-75.2649|CARLOS E. GUERRERO|ENRIQUE MORALES NUÑEZ|215|10|400||30|  998,000|2012-03-01||UL|Privado||13|13673
7NQ||EL PARAISO|La Primavera|Vichada|Aeródromo|5.1826|-69.6303|RUBEN D. VELASQUEZ|RUBEN D. VELASQUEZ|1100|20|3000||387| 5533,000|2014-11-11|2017-12-02|1A|Privado|2|99|99524
7NR||NUEVA ROMA|Plato|Magdalena|Aeródromo|9.968|-74.3303|JORGE SOLANO RECIO|JORGE SOLANO RECIO|550|10|3000||462| 4503,000|2012-08-16||1A|Privado|1|47|47555
7NS||JAGUAR|Puerto Gaitán|Meta|Aeródromo|4.2161|-72.0275|CEPCOLSA|CEPCOLSA|1200|23|||650| 4940,000|2012-09-06|2015-10-10|2B|Privado|980|50|50568
7NT||OCELOTE|Puerto Gaitán|Meta|Aeródromo|4.2751|-71.6123|HOCOL S.A.|HOCOL S.A.|1200|20|||690| 5922,000|2012-10-19||2B|Privado|1159|50|50568
8CB||BANCO DE LA REPUBLICA- CONDOTO|Condoto|Chocó|Aeródromo|||||||||||||||7|27|27205
9AA||BONAIRE  - CA|Ayapel|Córdoba|Aeródromo|8.2851|-75.0505|INDUSTRIAS DIPSA S.A.S.|INDUSTRIAS DIPSA S.A.S.|350|10|500||100|    8,000|2015-01-05||UL|Privado||23|23068
9AB||GETSEMANI|Hato Corozal|Casanare|Aeródromo|6.1506|-70.0294|MUNICIPIO|MUNICIPIO|800|14|2000||304| 2220,000|2004-06-10||1A|Público|112|85|85125
9AC||MARIA ALEJANDRA|Nunchía|Casanare|Aeródromo|5.0054|-72.3959|CIRO GUILLERMO VEGA N.|SAMBA LTDA.|640|10|2000||734| 2493,000|2014-05-12||1A|Fumigación|3|85|85225
9AD||URACA - CA.|Puerto Colombia|Atlántico|Aeródromo|11.0062|-74.9224|NORA CARVAJALINO|ALAS DEL CARIBE|320|10|800||204| 5624,000|2013-10-11|2016-11-12|UL|Privado|| 8| 8573
9AG||LIBANO - CA|Bosconia|Cesar|Aeródromo|||||||||||||||1|20|20060
9AH||SAN ROQUE  - CA.|San Pedro|Valle del Cauca|Aeródromo|4.0039|-76.2209|IRMA HERNANDEZ DE M.|JAKOB OLIVIER|235|10|400||3366| 5622,000|2013-10-11||UL|Privado||76|76670
9AI||CAÑO GARZA|Paz de Ariporo|Casanare|Aeródromo|5.5917|-71.5894|PERENCO COLOMBIA LIMITED|PERENCO COLOMBIA LIMITED|640|15|12202||530|  933,000|2015-04-24||1A|Privado|4578|85|85250
9AJ||SAN LUIS DE PACA|Mitú|Vaupés|Aeródromo|0.8744|-70.3464|RESGUARDO INDIGENA|GOBERNACION DEL VAUPES|424|10|1650||590| 3423,000|1997-09-16||1A|Público|78|97|97001
9AK||CANANARI|Mitú|Vaupés|Aeródromo|0.545|-70.9286|RESGUARDO INDIGENA|GOBERNACION DEL VAUPES|420|20|1650||780| 3423,000|1997-09-16||1A|Público|126|97|97001
9AL||LAS GUABINAS|Orocué|Casanare|Aeródromo|||||||||||||||1|85|85230
9AM||SAN FERNANDO|Paz de Ariporo|Casanare|Aeródromo|||||||||||||||10|85|85250
9AN||MARAREY|Orocué|Casanare|Aeródromo|4.8281|-71.0808|JULIAN VALENCIA I. Y OTROS|JULIAN VALENCIA I. Y OTROS|700|15|4800||498| 2001,000|2013-05-08|2016-05-09|1A|Privado|226|85|85230
9AO||SANTA CLARA|Sabanalarga|Casanare|Aeródromo|4.4172|-72.7744|ARMANDO SANCHEZ M.|TAES LTDA.|800|10|2500||610| 2137,000|2013-05-16||1A|Fumigación|23|85|85300
9AR||SAN PABLO|Mitú|Vaupés|Aeródromo|-0.7831|-70.3228|RESGUARDO INDIGENA|GOBERNACION DEL VAUPES|510|10|1650||550| 3423,000|1997-09-16||1A|Público|86|97|97001
9AS||SIRENAS|Trinidad|Casanare|Aeródromo|5.2541|-71.1576|PERENCO COLOMBIA LIMITED|PERENCO COLOMBIA LIMITED|600|18|5000||443| 3058,000|2014-06-10|2017-06-11|1A|Privado|2498|85|85430
9AT||COROCITO|Puerto López|Meta|Aeródromo|3.9507|-72.2186|AGROINVERSIONES COROCITO|AGROINVERSIONES COROCITO|980|10|3000||544| 1838,000|2013-04-26||1A|Privado|7|50|50573
9AU||LAS FURIAS|Nunchía|Casanare|Aeródromo|5.4039|-72.1228|MAURICIO CALA PEREZ|SFA LTDA.|800|10|2000||688| 5611,000|2012-10-04|2015-10-09|1A|Fumigación||85|85225
9AV||EL NOGAL|Villavicencio|Meta|Aeródromo|3.9883|-73.2994|GLORIA L.TIUSO|AEROTEC LTDA.|610|10|2000||817| 4739,000|2012-08-29||1A|Fumigación||50|50001
9AX||SANTA CRUZ|Puerto López|Meta|Aeródromo|4.1318|-73.1814|JULIO STRAUCH D.|COMERCIALIZADORA ECO|650|10|2000||659| 2685,000|2011-05-25||1A|Fumigación||50|50573
9AZ||REMACHE SUR|San Luis de Palenque|Casanare|Aeródromo|5.0832|-71.1525|DESIDERIO CHAPARRO|PERENCO COLOMBIA LIMITED|600|18|5000||459| 3058,000|2014-06-10|2017-06-11|1A|Privado|3353|85|85325
9BA||CURUMANI|Curumaní|Cesar|Aeródromo|9.2222|-73.5722|MUNICIPIO|FADELCE|900|23|2000||164| 2989,000|2008-07-02||2A|Fumigación||20|20228
9BB||SAN MIGUEL|Puerto López|Meta|Aeródromo|4.1069|-72.89|ELIZABETH CRUZ BULLA|SAAC S.A.S|670|10|2000||803|  251,000|2012-02-01|2015-02-09|1A|Fumigación|105|50|50573
9BC||CANTADELICIAS|Alpujarra|Tolima|Aeródromo|3.3873|-74.9338|MUNICIPIO|MUNICIPIO|700|15|12200||4213| 4541,000|2005-10-13||1A|Público||73|73024
9BD||CURALITO - UL|Valledupar|Cesar|Aeródromo|10.2729|-73.2798|JORGE LUIS PRIETO BERRIO|JORGE LUIS PRIETO B.|330|12|500||1920| 1675,000||2012-05-04|UL|Privado|7|20|20001
9BE||LAS VEGAS|Paz de Ariporo|Casanare|Aeródromo|6.0072|-71.2842|ALEIDA JERONIMO NAVAS|ALEIDA JERONIMO NAVAS|740|15|3500||430| 1657,000|2012-04-03||1A|Privado|15|85|85250
9BF||LA FRANCIA|El Paso|Cesar|Aeródromo|9.6394|-73.5282|SOCIEDAD COLOMBIAN NATURAL RESOURCES|EL MISMO|1100|18|||213|  962,000|2011-03-02||1B|Privado|149|20|20250
9BG||AGUAS BLANCAS|San Alberto|Cesar|Aeródromo|7.8197|-73.5719|PALMAS BELLAVISTA S.A.|CELTA LTDA.|800|15|3000||174| 4942,000|2014-09-22||1A|Fumigación||20|20710
9BH||GUAFITAS|Orocué|Casanare|Aeródromo|||||||||||||||279|85|85230
9BI||SAN FELIPE|Orocué|Casanare|Aeródromo|5.1037|-71.8425|MARIA LUCILA REYES ORDOÑEZ|MARIA LUCILA REYES O.|700|14|2000||554|  800,000|2010-02-18||1A|Privado|10|85|85230
9BK||JULIAN|Cabuyaro|Meta|Aeródromo|4.2711|-72.9869|HERNANDO JIMENEZ|ASAM LTDA|800|10|2500||735| 3181,000|2009-06-24|2012-07-06|1A|Fumigación||50|50124
9BL||LOS HALCONES|Bugalagrande|Valle del Cauca|Aeródromo|3.9178|-76.3206|DIEGO TORRES NUÑEZ|DIEGO TORRES NUÑEZ|350|10|500||3232| 6678,000|2012-11-22|2016-01-04|1A|Privado|10|76|76113
9BN||EL SOÑADOR|Aguazul|Casanare|Aeródromo|5.2299|-72.4528|GLORIA M. ALVIRA R.|CELTA LTDA.|700|14|2000||865|  304,000|2010-01-27|2013-02-09|1A|Fumigación||85|85010
9BO||VENECIA DE GUANAPALO|San Luis de Palenque|Casanare|Aeródromo|5.3079|-71.9204|COLCONSTRUC LTDA|COLCONSTRUC LTDA.|1000|15|5500||623| 4873,000|2014-09-16||1A|Privado|38|85|85325
9BP||EL CONCHAL - CA|El Cerrito|Valle del Cauca|Aeródromo|3.7273|-76.3902|ARMANDO ARAGON NAVIA|ARMANDO ARAGON NAVIA|200|10|400||3139|  326,000|2013-02-07|2016-04-01|1A|Privado||76|76248
9BR||SEVILLA|Hato Corozal|Casanare|Aeródromo|5.9234|-71.7139|HELI CALA LOPEZ|HELI CALA LOPEZ|700|15|3000||682| 4729,000|2013-09-06||1A|Privado||85|85125
9BS||LA COMARCA|Trinidad|Casanare|Aeródromo|||||||||||||||3|85|85430
9BT||ASA SAN MARTIN|Riohacha|La Guajira|Aeródromo|11.2889|-73.1756|ASA S EN C|ASA S. EN C.|830|15|4500||49| 5612,000|2012-10-04||1A|Fumigación||44|44001
9BW||LA FAZENDA|Puerto López|Meta|Aeródromo|4.3263|-72.2208|ALIAR S.A.|ALIAR S.A.|1200|12|5000||568| 1941,000|2013-05-03|2016-05-07|2B|Fumigación|42|50|50573
9BX||LA ESTRELLA-CA.|San Martín|Meta|Aeródromo|3.4802|-73.3276|CLUB LA LIBELULA|CLUB LA LIBELULA|300|75|500||787|  679,000|2011-02-15||UL|Privado||50|50689
9BY||SAN EDUARDO|Orocué|Casanare|Aeródromo|4.6422|-71.8104|EDUARDO J. GONZALEZ A.|EDUARDO J- GONZALEZ|800|12|2500||580| 1580,000|2014-03-26||1A|Privado|12|85|85230
9BZ||RIOSUCIO|Riosucio|Chocó|Aeródromo|7.4164|-77.0595|MUNICIPIO|MUNICIPIO|706|9|5670||72| 3430,000|2014-06-27||1A|Público|7|27|27615
9CA||LAS AGUILAS -CA|Yumbo|Valle del Cauca|Aeródromo|3.5134|-76.4931|SERESTEL S.A.|CLUB DEPORT.LAS AGUILAS|320|10|500||3100| 4939,000|2012-09-06||1A|Privado||76|76892
9CB||CAMARUCOS|Paz de Ariporo|Casanare|Aeródromo|5.8754|-70.6583|ALCALDIA|ALCALDIA|1200|15|2000||367| 4541,000|2006-10-27|2016-11-07|1A|Público|5|85|85250
9CC||EL TOTUMO|Paz de Ariporo|Casanare|Aeródromo|5.9387|-71.2217|MUNICIPIO|MUNICIPIO|520|15|2000||476| 4541,000|2006-10-27|2016-11-07|1A|Público|8|85|85250
9CD||VARSOVIA|Paz de Ariporo|Casanare|Aeródromo|5.849|-70.3648|MUNICIPIO|MUNICIPIO|550|15|2000||328| 4541,000|2006-10-27|2016-11-07|1A|Público|47|85|85250
9CE||LA HERMOSA|Paz de Ariporo|Casanare|Aeródromo|5.5307|-70.4497|MUNICIPIO|MUNICIPIO|884|15|2000||338| 4541,000|2006-10-27|2016-11-07|1A|Público|119|85|85250
9CF||SAN ESTEBAN|Paz de Ariporo|Casanare|Aeródromo|5.4441|-70.8352|MUNICIPIO|MUNICIPIO|580|15|2000||377| 4541,000|2006-10-27|2016-11-07|1A|Público|5|85|85250
9CG||SAN JOSE DEL ARIPORO|Paz de Ariporo|Casanare|Aeródromo|6.0475|-70.0128|MUNICIPIO|MUNICIPIO|570|15|2000||318| 4541,000|2006-10-27|2016-11-07|1A|Público|146|85|85250
9CH||COLINERAS|Paz de Ariporo|Casanare|Aeródromo|6.0713|-70.3678|MUNICIPIO|MUNICIPIO|410|15|2000||338| 4541,000|2006-10-27|2016-11-07|1A|Público|1|85|85250
9CI||LA CAIMANA|Paz de Ariporo|Casanare|Aeródromo|6.052|-70.8134|MUNICIPIO|MUNICIPIO|615|15|2000||400| 4541,000|2006-10-27|2016-11-07|1A|Público|11|85|85250
9CJ||EMAUS|San Luis de Palenque|Casanare|Aeródromo|5.1483|-71.0453|LUIS F. CASTILLO SANTOS|LUIS F. CASTILLO SANTOS|740|10|2500||430| 1945,000|2013-05-03||1A|Privado|41|85|85325
9CK||SANTA MARIA DEL CAFÉ|Hato Corozal|Casanare|Aeródromo|6.1111|-70.9888|MUNICIPIO|EL MISMO|510|15|2000||427| 4543,000|2006-10-27||1A|Público||85|85125
9CL||LA VENTUROSA|San Luis de Palenque|Casanare|Aeródromo|5.2388|-71.3035|MUNICIPIO|EL MISMO|620|15|2000||459| 4542,000|2006-10-27||1A|Público|1|85|85325
9CM||MIRAMAR DE GUANAPALO|San Luis de Palenque|Casanare|Aeródromo|5.0541|-71.0012|MUNICIPIO|EL MISMO|425|15|2000||394| 4542,000|2006-10-27||1A|Público|1|85|85325
9CP||LA SALVACION|Paz de Ariporo|Casanare|Aeródromo|5.9988|-70.6316|ALCALDIA|ALCALDIA|700|15|2000||384| 4807,000|2006-11-14||1A|Público||85|85250
9CQ||LOMA GRANDE - CA|Ayapel|Córdoba|Aeródromo|8.2937|-75.1176|O.V. OROZCO Y CIA. S.C.A.|EL MISMO|350|10|400||1280| 3341,000|2010-06-30||UL|Privado||23|23068
9CR||EL CAPRICHO|Puerto Gaitán|Meta|Aeródromo|4.2018|-72.1632|JORGE E. SALAZAR B.|EL MISMO|700|18|4500||551|  329,000|2013-02-07|2016-04-05|1A|Privado|1|50|50568
9CU||COROCORA|Trinidad|Casanare|Aeródromo|5.3751|-70.969|DORA AVELLA VDA.DE PAN|PERENCO COLOMBIA LIMITED|740|18|5000||430| 1000,000|2012-03-01||1A|Privado|2486|85|85430
9CX||SAN JUAN|Maní|Casanare|Aeródromo|4.8437|-72.3006|MARIA ILSE BERRIO|AGIL LTDA.|750|10|2000||591| 1055,000|2014-02-28|2017-03-11|1A|Fumigación|2|85|85139
9CY||LA MEJOR|Restrepo|Meta|Aeródromo|4.1538|-73.3205|JOSE A. REINA P.|SADELL S.A.S.|740|10|2000||844| 1125,000|2015-05-14||1A|Fumigación|1|50|50606
9CZ||GRISMANIA|Aguazul|Casanare|Aeródromo|4.989|-72.5099|LUZ MARINA VARGAS|SFA LTDA.|900|10|2000||669| 6670,000|2010-12-07||1A|Fumigación|1|85|85010
9DA||BALMORAL|Maní|Casanare|Aeródromo|4.8864|-72.3439|MELIDA OVALLE Y OTROS|AEROTEC LTDA.|840|10|2000||652|  694,000|2015-03-31|2017-04-08|1A|Fumigación|1|85|85139
9DB||PALMAS DE TUMACO  -CA|San Andrés de Tumaco|Nariño|Aeródromo|1.496|-78.765|PALMAS DE TUMACO S.A.|PALMAS DE TUMACO S.A.|225|10|500||136| 1897,000|2011-04-11|2014-06-08|UL|Privado|1|52|52835
9DC||INGENIO LA CARMELITA|Riofrío|Valle del Cauca|Aeródromo|4.0727|-76.316|SOCIEDAD GARRIDO|ING. LA CARMELITA|300|10|500||3087| 2961,000|2013-06-20|2015-08-05|1A|Fumigación||76|76616
9DE||LUNA PARK|La Primavera|Vichada|Aeródromo|5.128|-70.4931|DAVID ALFONSO MATTOS L.|DAVID ALFONSO MATTOS|1200|15|12000||410| 1056,000|2014-02-28|2017-03-06|1A|Privado|97|99|99524
9DF||EL PORTAL|San Alberto|Cesar|Aeródromo|||||||||||||||2|20|20710
9DG||EL LAGO - CA|Piedras|Tolima|Aeródromo|4.5575|-74.9003|BERNEY RODRIGUEZ|OSMANI RODRIGUEZ CARDOZO|350|10|500||1050| 6744,000|2010-12-13||UL|Privado||73|73547
9DH||HACIENDA LA JOYA|Córdoba|Bolívar|Aeródromo|9.6179|-74.8367|TRIPENTA S.A.|AGROTEMPO LTDA.|720|10|2000||82|    9,000|2013-01-03|2016-01-09|1A|Privado||13|13212
9DI||SAN FELIPE|San Felipe|Guainía|Aeródromo|1.915|-67.0776|GOBERNACION|GOBERNACION|1100|22|25000||312|  545,000|2008-02-13||1A|Público|89|94|94883
9DJ||LA PAULINA|La Paz|Cesar|Aeródromo|9.9129|-73.4795|AMA LTDA.|AMA LTDA.|725|15|2000||210| 3939,000|2014-07-25||1A|Fumigación||20|20621
9DK||EL VATICANO|Paratebueno|Cundinamarca|Aeródromo|4.287|-73.1876|ROMULO PINEDA GARCIA|HELICE LTDA.|800|10|2000||738|  999,000|2015-05-05|2018-06-02|1A|Fumigación||25|25530
9DL||LA PASTORA|Arauca|Arauca|Aeródromo|6.798|-70.9777|SAO E.U|SAO E.U.|740|10|2000||600| 2139,000|2013-05-16||1A|Fumigación||81|81001
9DM||LA VEREMOS|San Luis de Palenque|Casanare|Aeródromo|5.338|-71.6004|ALVARO PEREZ|HELICE LTDA.|840|15|2000||574|  119,000|2015-01-21|2018-03-09|1A|Fumigación||85|85325
9DN||SAN FRANCISCO|Puerto Gaitán|Meta|Aeródromo|4.26|-71.9146|PROYECTOS LA FAZENDA|AGROPECUARIA ALIAR S.A.|1200|18|5000||712| 5521,000|2014-11-11|2017-11-12|2A|Fumigación|3|50|50568
9DO||TALANQUERA|Puerto López|Meta|Aeródromo|4.141|-73.032|FERNANDO TOVAR TAMAYO|COMERCIALIZADORA ECO|740|10|2000||179| 6016,000|2012-10-23||1A|Fumigación||50|50573
9DP||SHANGRI-LA|Riohacha|La Guajira|Aeródromo|11.2786|-73.1283|CI. SAMARIA|ASA S.A.S.|650|10|3000||82|  833,000|||1A|Fumigación||44|44001
9LD||LA LUCHA|Ciénaga|Magdalena|Aeródromo|10.97|-74.1833|FUMIGARAY S.A.|FUMIGARAY S.A.|750|10|3600||567| 5967,000|2014-12-15||1A|Fumigación||47|47189
9LG||VILLA GEORGINA|Tauramena|Casanare|Aeródromo|4.3625|-74.3214|SANTIAGO PULIDO NIÑO|COMERCIALIZAD. ECO|710|10|2000||594||2012-10-16||1A|Fumigación||85|85410
9LH||INGENIO PICHICHI|Guacarí|Valle del Cauca|Aeródromo|3.5347|-76.1653|INGENIO PICHICHI S.A.|INGENIO PICHICHI|340|10|500||3215| 2951,000|2013-06-20|2015-08-05|1A|Fumigación||76|76318
9LI||SAN SEBASTIAN|Cabuyaro|Meta|Aeródromo|4.3356|-72.7803|NELLY ZARATE|AEROTEC LTDA.|740|10|2000||680| 4738,000|2012-08-20||1A|Fumigación|30|50|50124
9LJ||EL COROZO|Arauca|Arauca|Aeródromo|6.9136|-70.8562|NEBIO ECHEVERRY|FUMIVILLA|750|10|2000||416| 2141,000|2013-05-16||1A|Fumigación||81|81001
9LK||HATO VIEJO|Arauca|Arauca|Aeródromo|6.8964|-70.7791|COMERCIALIZADORA EL PROVEEDOR LTDA.|FUMIVILLA|750|10|2000||416| 2141,000|2013-05-16||1A|Fumigación||81|81001
9LL||CIENFUEGOS|Paz de Ariporo|Casanare|Aeródromo|5.5831|-71.7289|JAIRO GRANADOS CEIJA|SAO E.U.|800|10|2000||574| 1315,000|2014-03-13||1A|Fumigación||85|85250
9LM||LA TRINIDAD|Puerto Rico|Meta|Aeródromo|||||||||||||||2|50|50590
9LN||GUADUALITO|Nunchía|Casanare|Aeródromo|5.4593|-71.912|CUPERTINO CUEVAS D.|SANAR S.A.|700|10|3000||639| 4943,000|2012-09-06||1A|Fumigación||85|85225
9LP||LA REDENCION|Pore|Casanare|Aeródromo|5.6618|-71.8088|MARIA DEL S. MONTOYA|FRANCISCO H. MARTINEZ|750|10|2000||636| 3053,000|2013-06-26||1A|Privado||85|85263
9LQ||LA PONDEROSA|Puerto Gaitán|Meta|Aeródromo|4.6316|-71.2141|MONICA COLOMBIA LTDA.|MONICA COLOMBIA LTDA|1200|18|3000||537| 5243,000|2012-09-19||2A|Privado|25|50|50568
9LR||LOS REMANSOS|Cimitarra|Santander|Aeródromo|6.5729|-74.2195|NELLY VALENCIA|AEROPENORT LTDA.|700|10|3000||357| 4373,000|2009-08-21|2012-10-08|1A|Fumigación||68|68190
9LS||SAN LUIS|La Esperanza|Norte de Santander|Aeródromo|7.6382|-73.4381|CRIAGAN S.A.|AEROPENORT LTDA.|770|10|2000||308| 7389,000|2012-12-28|2016-02-12|1A|Fumigación||54|54385
9LT||LOS GAVANES (LA MATA)|Arauca|Arauca|Aeródromo|7.0093|-70.7743|FUMIGAR|FUMIVILLA|760|12|3000||416| 2141,000|2013-05-16||1A|Fumigación||81|81001
9LU||EL RODEO|Tauramena|Casanare|Aeródromo|4.5772|-72.6914|JEREMIAS VACA RIAÑO|ASAM LTDA.|800|10|2000||746| 6069,000|2012-10-25||1A|Fumigación||85|85410
9LW||EL PALMAR|Nunchía|Casanare|Aeródromo|5.396|-71.9116|MAURICIO MEDINA NIÑO|FIBA S.A.|700|10|3000||629|  472,000|2013-02-13||1A|Fumigación|5|85|85225
9LX||LA GAITANA|Cabuyaro|Meta|Aeródromo|4.2253|-73.0298|P.VICENTE PERALES|FACOL LTDA.|800|10|4500||627| 1844,000|2013-04-26||1A|Fumigación||50|50124
9LY||SAN ISIDRO II|Cumaral|Meta|Aeródromo|4.1585|-73.3408|MARIA A PACHE OCHOA|MARIA A. PACHECO O.|890|10|2000||175| 4730,000|2013-09-06||1A|Fumigación||50|50226
9LZ||GABRIELAS|Jamundí|Valle del Cauca|Aeródromo|3.1797|-76.5507|HAROLD BENAVIDEZ|FIBA S.A.|750|18|3000||3215| 1129,000|2015-05-14|2018-07-06|1A|Fumigación||76|76364
9M1||TRES ESQUINAS AB|Solano|Caquetá|Aeródromo|||||||||||||||1160|18|18756
9M2||LARANDIA|Florencia|Caquetá|Aeródromo|||||||||||||||824|18|18001
9MA||EL DELIRIO|Arauca|Arauca|Aeródromo|6.9831|-70.882|CARMEN A. CABEZAS PEREZ|FUMIVILLA|800|10|3000||430| 5180,000|2011-09-20|2014-10-11|1A|Fumigación||81|81001
9MB||EL TRIANGULO|Fundación|Magdalena|Aeródromo|10.318|-74.0252|GANADERIA EL TRIANGULO|GANADERIA EL TRIANGULO|700|14|2000||196|  172,000|2015-01-27||1A|Privado||47|47288
9MC||LA MONICA|Tauramena|Casanare|Aeródromo|4.6856|-72.6005|MAURICIO TORRES CUBIDES|ASAM LTDA.|840|10|2000||554| 4896,000|2011-09-06||1A|Fumigación||85|85410
9MD||LA ABEJITA|Monterrey|Casanare|Aeródromo|5.0095|-72.3234|JOSE A. VARGAS P.|AGIL LTDA.|840|10|2000||682| 5479,000|2011-09-30|2014-11-09|1A|Fumigación||85|85162
9ME||CACHIMBALITO - CA|Santander de Quilichao|Cauca|Aeródromo|3.1653|-76.4738|INCAUCA|INCAUCA.S.A. - ASOCAÑA|250|10|500||3241| 2956,000|2013-06-20|2015-08-05|1A|Fumigación||19|19698
9MG||MADREVIEJA|Nunchía|Casanare|Aeródromo|5.4623|-71.9584|CELMIRA BARRAGAN F.|CELMIRA BARRAGAN F.|1000|10|2000||640| 4509,000|2012-08-16||1A|Fumigación||85|85225
9MH||SAN JUAN|San Martín|Meta|Aeródromo|3.7017|-73.3774|RODOLFO MENDEZ|MARIA A. PACHECO O.|740|10|2000||870| 1840,000|2013-04-26|2016-05-03|1A|Fumigación||50|50689
9MI||LA FORTUNA|Puerto López|Meta|Aeródromo|4.1028|-72.978|SAAC S.A.S|SAAC S.A.S|780|15|3000||690||2012-04-03|2012-07-03|1A|Fumigación||50|50573
9MJ||AGROFORESTAL MATA AZUL|Santa Rosalía|Vichada|Aeródromo|5.2897|-70.6337||RIOPAILA CASTILLA S.A.|1200|20|6500||118| 1478,000|2012-03-23||1A|Privado||99|99624
9MK||VILLA ISABELLA|Trinidad|Casanare|Aeródromo|5.2993|-71.3434|RAFAEL QUESADA|TAES LTDA.|800|10|2000||620| 4313,000|2012-08-08||1A|Fumigación||85|85430
9ML||MIRADOR|Trinidad|Casanare|Aeródromo|5.4326|-71.6009|ANGELICA VEGA|TAES LTDA.|790|10|2000||620| 4314,000|2012-08-08||1A|Fumigación||85|85430
9MM||EL CARIBE|Paz de Ariporo|Casanare|Aeródromo|5.7198|-71.4963|REGULO GAMA OJEDA|FARO LTDA.|800|10|2000||585| 1684,000|2013-04-18|2016-05-03|1A|Fumigación||85|85250
9MN||EL PEDRAL BONANZA|Puerto Wilches|Santander|Aeródromo|7.2417|-73.8151||AEROPENORT LTDA.|800|10|3000||282||2012-05-07|2012-08-07|1A|Fumigación||68|68575
9MO||SAN NICOLAS|Tauramena|Casanare|Aeródromo|4.4703|-72.4575|CARLOS E. CONTRERAS|ASAM LTDA.|840|10|2000||585| 4510,000|2012-08-16||1A|Fumigación||85|85410
9MP||LOS LOBOS|Tauramena|Casanare|Aeródromo|4.4748|-72.7478|AGROVIMART S.A.|AGIL LTDA.|800|10|3000||580| 1685,000|2013-04-18|2016-05-03|1A|Fumigación||85|85410
9MQ||EL RASTRO|Cumaribo|Vichada|Aeródromo|4.7022|-70.8617|EL RASTRO 1 S.A.S.|EL RASTRO  1 S.A.S|800|15|2000||545| 7391,000|2012-12-28||1A|Fumigación||99|99773
9MR||LOS GANSOS|Cumaribo|Vichada|Aeródromo|4.6764|-70.9997|LOS GANSOS 1 S.A.S.|LOS GANSOS 1 S.AS.|900|40|2000||544| 7390,000|2012-12-28||1A|Fumigación||99|99773
9MS||BETANIA|Trinidad|Casanare|Aeródromo|5.5319|-71.6812|DIOSELINO ACOSTA|SAO E.U.|800|10|2000||2030| 1216,000|2013-03-20||1A|Fumigación|1|85|85430
9MT||AGUAS CLARAS|Sabana de Torres|Santander|Aeródromo|7.2731|-73.5626|EDGAR MEZA ORTIZ|EDGAR MEZA ORTIZ|800|10|2500||652| 1681,000|2013-04-18||1A|Fumigación||68|68655
9MV||MARIA JUANA|Aguazul|Casanare|Aeródromo|5.0054|-72.3959|BLANCA E. BULLA PULIDO|SAAC S.A.S.|800|10|2000||1191| 2137,000|2014-04-25||1A|Fumigación||85|85010
9MW||LAS NUBES|Puerto Gaitán|Meta|Aeródromo|4.2563|-71.7977|AGMO NUBES INVER.S.A.S|AGMO NUBES INVERSIONES|1000|18|4500||1030| 1942,000|2013-05-03|2016-05-08|1A|Fumigación|2|50|50568
9MX||EL SILENCIO|Paz de Ariporo|Casanare|Aeródromo|5.7555|-71.6583|PEDRO A. VARGAS BECERRA|AEROTEC LTDA.|900|10|2000||577| 2130,000|2014-04-25||1A|Fumigación||85|85250
9MY||AFGANISTAN|Paz de Ariporo|Casanare|Aeródromo|5.886|-71.408|JOSE IVAN CORTES P.|SANDRA PATRICIA YATE|900|10|2000||577| 2131,000|2014-04-25|2017-05-06|1A|Fumigación||85|85250
9MZ||LA FORTALEZA|Paz de Ariporo|Casanare|Aeródromo|5.7953|-71.7571|HENRY MARTINEZ C.|FAAC S.A.S.|840|10|2000||640| 4938,000|2014-09-22||1A|Fumigación||85|85250
9NA||LOS GUIRES|Hato Corozal|Casanare|Aeródromo|6.1853|-71.521|EDISON DELGADO|FAAC S.A.S.|840|10|2000||538| 4938,000|2014-09-22||1A|Fumigación||85|85125
9NB||LAS PALMAS|La Gloria|Cesar|Aeródromo|8.5803|-73.6619|NAVIAGRI - NAVILOG S.A.|CELTA LTDA.|1000|15|2500||554| 5531,000|2014-11-11||1A|Fumigación||20|20383
9NC||LA DALIA|Arauca|Arauca|Aeródromo|6.9687|-70.962|HORACIO E. MARTINEZ G.|HORACIO E. MARTINEZ G.|700|10|2500||390|  438,000|2015-02-27|2018-03-03|1A|Fumigación||81|81001
9ND||VILLA VERONICA|Trinidad|Casanare|Aeródromo|5.3884|-71.5896|CRISTINA I. GONZALEZ|TAES LTDA.|800|10|2000||564|  120,000|2015-01-21|2018-03-06|1A|Fumigación||85|85430
9NE||SAN CARLOS - CA|Tuluá|Valle del Cauca|Aeródromo|4.0588|-76.2704|MAYAGUEZ S.A.|MAYAGUEZ S.A.|300|10|500||3320|  620,000|2015-03-19||1A|Fumigación||76|76834
9NF||RENSO|Trinidad|Casanare|Aeródromo|5.2417|-71.1909|MARTHA L. PAN A.|TAES LTDA.|800|10|2000||432|  692,000|2015-03-31||1A|Fumigación||85|85430
9NG||REMOLINOS|Puerto López|Meta|Aeródromo|4.2053|-72.6639|BLANCA E. BULLA PULIDO|ECO LTDA.|840|10|2000||586|  835,000|2015-04-14||1A|Fumigación||50|50573
9NH||LOS ARUCOS|Maní|Casanare|Aeródromo|4.9461|-72.2181|LUIS A. SANTOS|SAAC S.A.S.|840|10|2000||600|  693,000|2015-03-31||1A|Fumigación||85|85139
9NI||LA BENDICION DE ARAUCA|Arauca|Arauca|Aeródromo|6.9496|-70.7562|AGROPECUARIA MARIPANATO SAS|HORACIO E. MARTINEZ G.|800|10|2500||410| 1126,000|2015-05-14||1A|Fumigación||81|81001
9NJ||BELGRADO|Maní|Casanare|Aeródromo|4.3026|-72.3026|FLORINDA ADAN GARCIA|SAAC S.A.S.|840|10|2000||682|  834,000|2015-04-14||1A|Fumigación||85|85139
9NK||MEXICO|Trinidad|Casanare|Aeródromo|5.495|-71.5189|CARLOS A. ARIZA|SAO S.A.S.|800|10|2000||568|  997,000|2015-05-05||1A|Fumigación||85|85430
9NL||EL TESORO|Trinidad|Casanare|Aeródromo|5.3072|-71.3732|RENSO AMAYA BECERRA|SAO S.A.S.|900|10|2000||516| 1327,000|2015-06-05|2018-07-09|1A|Fumigación||85|85430
A01||CAMPO ALEGRE|Inírida|Guainía|Aeródromo|1.8653|-69.0101|GOBERNACION|GOBERNACION|450|15|2000||577| 1333,000|2013-03-26||1A|Público|182|94|94001
A02||CAÑO COLORADO|Inírida|Guainía|Aeródromo|2.2774|-68.3599|GOBERNACION|GOBERNACION|1100|15|12202||413| 4419,000|2013-08-23||1C|Público|7|94|94001
A03||FORTUL|Fortul|Arauca|Aeródromo|6.7817|-71.7791|GOBERNACION|MUNICIPIO|700|13|4000||730| 2036,000|2010-04-23||1A|Público|2|81|81300
A04||SANTA ROSA DEL SUR|Santa Rosa del Sur|Bolívar|Aeródromo|7.9629|-76.034|MUNICIPIO|MUNICIPIO|720|18|5000||61| 5959,000|2014-12-15||1A|Público|258|13|13688
ABT||AGUA BLANCA|Piedras|Tolima|Aeródromo|4.4656|-74.9948|SOCIEDAD CULTIVOS SAN JOSE|CRUZ VERDE|680|10|2000||1994| 4508,000|2012-08-18|2015-09-03|1A|Fumigación|17|73|73547
ACD|ACD|ALCIDES FERNANDEZ|Acandí|Chocó|Regional|8.4969|-77.2739|INCORA LTDA|MUNICIPIO|1200|16|||50| 1072,000|1969-09-15||3A|Público|2564|27|27006
ACI||EL MONASTERIO|Acacías|Meta|Aeródromo|3.9587|-73.4425|EFA LTDA.|EFA LTDA.|680|10|2000||948| 2634,000|2012-05-24||1A|Fumigación|4|50|50006
ACL|ACL|AGUACLARA|Sabanalarga|Casanare|Aeródromo|4.7333|-73.0583|CORREGIMIENTO|CORREGIMIENTO|800|25|12202||1033| 3660,000|2007-08-14||1C|Público|2|85|85300
ACP||ACAPULCO|Nunchía|Casanare|Aeródromo|5.4086|-71.8694|YOLANDA CAMACHO V.|MARIA A. PACHECO OCHOA|870|10|2000||656| 4895,000|2011-09-06|2014-09-09|1A|Fumigación||85|85225
ACR|ACR|ARARACUARA|Solano|Caquetá|Regional|-0.6008|-72.3981|GOBERNACION|GOBERNACION|1300|30|27000||800|   31,000|1958-02-05||3C|Público|1778|18|18756
ADN||ANDES|Andes|Antioquia|Aeródromo|||||||||||||||| 5| 5034
ADZ|ADZ|GUSTAVO ROJAS PINILLA|San Andrés|San Andrés islas|Internacional|12.5837|-81.7113|AEROCIVIL|AEROCIVIL|2380|36|||18|  352,000|1968-05-17||4D|Aerocivil|76692|88|88001
AER||AEROFLANDES - C.A.|Flandes|Tolima|Aeródromo|4.2171|-74.8454|AEROFLANDES|CLUB.ULTR-LA LIBELULA|240|10|500||1049| 1211,000|2013-03-20|2016-04-10|UL|Privado||73|73275
AFC||FABAL-COALCESAR|Aguachica|Cesar|Aeródromo|8.2415|-73.6901|COALCESAR|COALCESAR LTDA|650|15|2000||197|  441,000|||1A|Fumigación|133|20|20011
AFD||FADELCE|Armenia|Quindío|Aeródromo|||||||||||||||5|63|63001
AFI|AFI|EL RIO|Amalfi|Antioquia|Aeródromo|6.8954|-75.0475|AEROCIVIL|AEROCIVIL|970|20|3500||4831|  551,000|1968-10-07||2A|Aerocivil|258| 5| 5031
AGB||AGUA BLANCA|Espinal|Tolima|Aeródromo|4.1839|-74.8931|FARCA S.A. - COMODATO|SANIDAD VEGETAL CRUZ|750|10|2000||1095| 7095,000|2013-12-19||1A|Fumigación|4|73|73268
AGC||EL FARO|Aguachica|Cesar|Aeródromo|||||||||||||||8|20|20011
AGH||HACARITAMA|Aguachica|Cesar|Aeródromo|8.2473|-73.5821|AEROCIVIL|AEROCIVIL|1310|25|12202||700| 9248,000|1987-07-27||2C|Aerocivil|1245|20|20011
AGI||EL PARAISO|Aguachica|Cesar|Aeródromo|8.1258|-73.5806|SOCIEDAD CHARRY NARVAEZ|CELTA LTDA.|600|10|2500||328| 1127,000|2015-05-14|2018-06-11|1A|Fumigación|6|20|20011
AGJ||JAMAICA|Aguazul|Casanare|Aeródromo|5.0905|-72.4462|VICTOR H-TORRES Z.|AVIOCOL LTDA.|750|10|2000||781| 1054,000|2014-02-28|2017-04-08|1A|Fumigación|2|85|85010
AGT||AGUA BLANCA|Piedras|Tolima|Aeródromo|||||||||||||||17|73|73547
AGU||MARIA ANGELICA|Aguazul|Casanare|Aeródromo|5.0546|-72.4471|GERMAN ERAZO|CELTA LTDA.|800|15|2000||720| 4736,000|2013-09-06||1A|Fumigación|5|85|85010
AGY||BASE PRINCIPAL CELTA|Aguachica|Cesar|Aeródromo|8.2002|-73.6313|CIA. EN LABORES TEC Y A|CELTA LTDA.|800|15|2500||305| 5318,000|2014-10-21|2017-11-12|1A|Fumigación|543|20|20011
AGZ||AGUAZUL|Aguazul|Casanare|Aeródromo|||||||||||||||10|85|85010
AIH||LA MANGA|Aipe|Huila|Aeródromo|||||||||||||||1|41|41016
ALR||ALFEMAR|Juradó|Chocó|Aeródromo|||||||||||||||389|27|27372
ALT||ALTAMIRA|Orocué|Casanare|Aeródromo|4.7586|-71.6386|PALMAR DE ALTAMIRA S.A.S.|PALMAR DE ALTAMIRA S.A.A|1100|15|5000||492| 6124,000|2014-12-24||1A|Privado|208|85|85230
ALV||EL DIAMANTE|Alvarado|Tolima|Aeródromo|4.5694|-74.9337|ELIAS ACOSTA Y CIA LTDA|CRUZ VERDE|620|10|2000||1312| 4728,000|2013-09-06||1A|Fumigación|2|73|73026
AMA||LA AMALIA|Ciénaga|Magdalena|Aeródromo|10.867|-74.1458|ADMINISTRACIONES Y SERVICIOS AEREOS S.A.S.|ASA S.A.S.|800|10|3000||482| 5716,000|2014-11-25|2017-12-02|1A|Fumigación||47|47189
AMB||EL SANTUARIO|Ambalema|Tolima|Aeródromo|4.9029|-74.7797|HACIENDA ZAPAYAN S.A.|HACIENDA ZAPAYAN S.A.|750|10|2800||830||2015-06-04|2015-07-04|1A|Fumigación|2|73|73030
AMN||PORTUGALITO|Armenia|Quindío|Aeródromo|||||||||||||||2|63|63001
ANN||ANA MARIA|Agustín Codazzi|Cesar|Aeródromo|||||||||||||||2|20|20013
APO|APO|ANTONIO ROLDAN BETANCOURT|Carepa|Antioquia|Nacional|7.8118|-76.7164|AEROCIVIL|EN CONCESION- SOACN(Sociedad Operadora de Aeropuertos Centro Norte|2180|30|||46| 1590,000|1969-06-10||4C|Aerocivil|40556| 5| 5147
APY|API|APIAY - FAC|Villavicencio|Meta|Aeródromo|4.0761|-73.5627|FAC|F A C|1800|40|||1200||||4D|Militar|378|50|50001
ARA||LA RUBIERA|Arauca|Arauca|Aeródromo|||||||||||||||41|81|81001
ARC||PERENCO|Yopal|Casanare|Aeródromo|||||||||||||||17|85|85001
ARE||EL CEDRITO -CA|Armenia|Quindío|Aeródromo|||||||||||||||18|63|63001
ARG||ARAGUANEY|Yopal|Casanare|Aeródromo|5.413|-72.285|SANAR S.A.S|SANAR S.A.S.|850|10|4000||796|  705,000|2014-02-12||1A|Fumigación|10|85|85001
ARO|ARO|ARBOLETES|Arboletes|Antioquia|Aeródromo|8.8394|-76.43|MUNICIPIO|MUNICIPIO|1100|10|6000||13| 4381,000|2002-09-04||2B|Público|5| 5| 5051
ARQ|ARQ|EL TRONCAL|Arauquita|Arauca|Aeródromo|7.0211|-71.3889|AEROCIVIL|AEROCIVIL|960|12|12202||509| 1073,000|1969-09-15||2C|Aerocivil|70|81|81065
ASA||ASA-COPEY|El Copey|Cesar|Aeródromo|||||||||||||||1|20|20238
ATC||ATACO|Ataco|Tolima|Aeródromo|3.5837|-75.3891|MUNICIPIO|MUNICIPIO|800|15|4000||1519|  156,000|1957-07-23||2A|Público|1|73|73067
AUC|AUC|SANTIAGO PEREZ QUIROZ|Arauca|Arauca|Nacional|7.0689|-70.737|AEROCIVIL|AEROCIVIL|2100|30|||418|  984,000|1987-02-02||4C|Aerocivil|25923|81|81001
AUR||EL CORAJE|Ariguaní|Magdalena|Aeródromo|10.0247|-74.067|CAMAGUEY S.A.|CAMAGUEY S.A.|720|15|4000||282| 7094,000|2013-12-19||1A|Privado|30|47|47058
AXM|AXM|EL EDEN|Armenia|Quindío|Internacional|4.452893|-75.767286|||||||||||||48572|63|63001
AYC||LA GLORIA|La Gloria|Cesar|Aeródromo|||||||||||||||3|20|20383
BAA||BANCO CAFETERO|Manizales|Caldas|Aeródromo|||||||||||||||2|17|17001
BAC||BANCO DE LA REPUBLICA|Medellín|Antioquia|Aeródromo|||||||||||||||2| 5| 5001
BAL||INGENIO RISARALDA|Balboa|Risaralda|Aeródromo|4.8948|-75.9044|INGENIO RISARALDA|ING.RISARALDA-ASOCAÑA|250|10|500||3034| 2954,000|2013-06-20|2015-08-05|1A|Fumigación||66|66075
BAN||BANCO LARGO|Nunchía|Casanare|Aeródromo|5.4631|-72.0631|JAVIER CHINCHILLA MUNAR|SFA- LTDA|840|10|2000||692| 7056,000|2012-12-07||1A|Fumigación||85|85225
BAQ|BAQ|ERNESTO CORTISSOZ|Barranquilla|Atlántico|Internacional|10.8896|-74.7809|AEROCIVIL|GRUPO AEROPORTUARIO DEL CARIBE S.A.S.|3000|45|||98| 1152,000|2015-05-15||4E|Aerocivil|125956| 8| 8001
BAR||GUAICARAMO|Barranca de Upía|Meta|Aeródromo|4.4605|-72.9509|GUAICARAMO S.A.|GUAICARAMO S.A.|800|18|5500||649| 7236,000|2013-12-27||1A|Fumigación|17|50|50110
BAT||BANCO DE OCCIDENTE|Cali|Valle del Cauca|Aeródromo|||||||||||||||12|76|76001
BBA||PIZARRO|Bajo Baudó|Chocó|Aeródromo|4.9608|-77.3633|MUNICIPIO|MUNICIPIO|1000|10|||10| 6365,000|2008-12-30||1A|Público|4944|27|27077
BCA||CERREJON CENTRAL|Barrancas|La Guajira|Aeródromo|||||||||||||||9|44|44078
BCO||JULIA CAROLINA|Bosconia|Cesar|Aeródromo|||||||||||||||132|20|20060
BCU||OREGANAL|Barrancas|La Guajira|Aeródromo|||||||||||||||1|44|44078
BEC||BECERRIL|Becerril|Cesar|Aeródromo|9.6628|-73.2744|MUNICIPIO|FUMILLANOS|1300|27|3500||320| 2989,000|2008-07-02||3B|Fumigación|51|20|20045
BEE||BENEFICENCIA DEL TOLIMA|Ibagué|Tolima|Aeródromo|||||||||||||||86|73|73001
BER||BECERRIL|Becerril|Cesar|Aeródromo|||||||||||||||1|20|20045
BGA|BGA|PALONEGRO|Bucaramanga|Santander|Internacional|7.127269|-73.182945|||||||||||||143503|68|68001
BGN||EL MILAGRO|Bugalagrande|Valle del Cauca|Aeródromo|||||||||||||||4|76|76113
BIC||BERASTEGUI|Ciénaga de Oro|Córdoba|Aeródromo|8.8845|-75.6835|AEROCIVIL|AEROCIVIL|1530|20|2000||48|  984,000|1987-02-02||0B|Aerocivil|1|23|23189
BIZ||BIZERTA|Nunchía|Casanare|Aeródromo|5.4225|-71.9936|CELMIRA BARRAGAN F.|FUMIVILLA LTDA|700|10|2000||639|  151,000|2013-01-25||1A|Fumigación|1|85|85225
BJA||BERLIN|Villavieja|Huila|Aeródromo|||||||||||||||3|41|41872
BJE||LA CASCAJERA|Barrancabermeja|Santander|Aeródromo|||||||||||||||19|68|68081
BMG||BARRANCO MINAS|Barranco Minas|Guainía|Aeródromo|3.4907|-69.8097|GOBERNACION|DEPARTAMENTO|900|15|||125| 2477,000|1972-09-11||1A|Público|3058|94|94343
BNA||BUENOS AIRES -FADELCE|Pailitas|Cesar|Aeródromo|||||||||||||||2|20|20517
BNI||BOLUGA|Venadillo|Tolima|Aeródromo|4.6903|-74.8894|MARGOT URIBE DE SAMPER Y CIA|CRUZ VERDE|640|10|3000||1092| 2172,000|2012-04-30||1A|Fumigación||73|73861
BNO||BUENOS AIRES|Puerto Wilches|Santander|Aeródromo|7.462|-73.7464|AGRICOLA BUFALERA DE COLOMBIA|EL MISMO|1060|18|3500||229| 7239,000|2012-12-19||1A|Privado|26|68|68575
BNP||BUENOS AIRES -FADELCE|Pailitas|Cesar|Aeródromo|9.02|-73.6725|FADELCE LTDA|FADELCE LTDA|840|15|2000||82|   24,000|2009-01-07|2012-02-12|2A|Fumigación|2|20|20517
BOC||SAN MARTIN|Bosconia|Cesar|Aeródromo|||||||||||||||147|20|20060
BOG|BOG|EL DORADO|Bogotá, D.C.|Bogotá, D.C.|Internacional|4.7017|-74.1469|AEROCIVIL|EN CONCESION CODAD|3800|60|||8356|  320,000|1959-12-04||4E|Aerocivil|1028334|11|11001
BQL||BARRANQUILLITA|Miraflores|Guaviare|Aeródromo|1.5467|-72.3258|GOBERNACION|INS POL BARRANQUILLITA|700|15|5000||800| 2989,000|||1A|Público|79|95|95200
BSA||LA ESPERANZA|Barbosa|Santander|Aeródromo|5.9485|-73.6092|GOBERNACION|MUNICIPIO|1000|16|||5308|  306,000|||2A|Público|228|68|68077
BSC|BSC|JOSE CELESTINO MUTIS|Bahía Solano|Chocó|Regional|6.2031|-77.395|MUNICIPIO|MUNICIPIO|1200|30|||80|  551,000|||2C|Público|21146|27|27075
BUN|BUN|BUENAVENTURA-GERARDO TOBAR LOPEZ|Buenaventura|Valle del Cauca|Nacional|3.8196|-76.9899|AEROCIVIL|AEROCIVIL|1200|30|||44| 1026,000|1967-08-28||2C|Aerocivil|4776|76|76109
BUO||BUENOS AIRES|Yopal|Casanare|Aeródromo|5.149|-72.3519|GILMA MARTINEZ DE B.|SERFABA S.A.S.|800|10|2000||732| 3061,000|||1A|Fumigación|8|85|85001
BVA||BUENAVISTA|Distracción|La Guajira|Aeródromo|10.8874|-72.9007|EJERCITO|EJERCITO|1420|30|29000||850||||3C|Militar|1338|44|44098
BYA||EL TAMBO|Cartagena de Indias|Bolívar|Aeródromo|10.4817|-75.4136|JORGE I. AGUDELO RESTREPO|JORGE I. AGUDELO RESTREPO|350|15|2313||100| 4218,000|||1A|Privado||13|13001
CAA||CAÑO GANDUL|San Luis de Palenque|Casanare|Aeródromo|5.1725|-71.1419|PERENCO COLOMBIA LIMITED|PERENCO COLOMBIA LIMITED|600|16|3000||431| 5603,000|||1A|Privado|7741|85|85325
CAC||CAMPO CAPOTE|Vélez|Santander|Aeródromo|6.75|-73.9167|INDERENA|INDERENA|500|20|2300||500| 2302,000|||1A|Público|11|68|68861
CAD||INGENIO MAYAGUEZ|Candelaria|Valle del Cauca|Aeródromo|3.3948|-76.3238|INGENIO MAYAGUEZ S.A.|ING. MAYAGUEZ-ASOCAÑA|200|10|500||3320| 2958,000||2015-08-05|1A|Fumigación|1|76|76130
CAG||CASACARA CAYTA|Agustín Codazzi|Cesar|Aeródromo|9.9281|-73.2531|FADELCE LTDA|FADELCE LTDA|900|20|4000||384| 3055,000|||1A|Fumigación|27|20|20013
CAH||EL VISO INCORA|Campoalegre|Huila|Aeródromo|||||||||||||||2|41|41132
CAL||CALIMA|Aguachica|Cesar|Aeródromo|8.2854|-73.643|CELTA LTDA|CELTA LTDA.|900|15|2500||427| 1127,000||2018-06-11|1A|Fumigación|64|20|20011
CAM||CABO MARZO|Juradó|Chocó|Aeródromo|6.8794|-77.678|SERVICIALES LTDA.|SERVICIALES LTDA.|700|18|5000||16| 4418,000||2016-10-02|1A|Privado|34|27|27372
CAN||CANARIAS|Nunchía|Casanare|Aeródromo|5.472|-72.1533|SERRANO HERRERA Y CIA|EL MISMO|740|10|2500||735| 3940,000|2014-07-25||1A|Fumigación|1|85|85225
CAO||"CENTRO ADMINISTRATIVO ""MARANDUA"""|Cumaribo|Vichada|Aeródromo|5.3345|-67.8646|INDERENA|INDERENA|1780|28|33112||500| 1413,000|||3B|Público|1154|99|99773
CAP||CAMPO ALEGRE|San Luis de Palenque|Casanare|Aeródromo|5.4053|-71.1293|ALIRIO CORREA Y OTROS|SERFABA S.A.S.|700|10|2000||656| 1207,000|||1A|Fumigación|61|85|85325
CAQ||JUAN H.WHITE|Caucasia|Antioquia|Regional|7.968|-75.1982|AEROLINEA DE ANTIOQUIA|AEROLINEA DE ANTIOQ.|1080|23|||207| 5052,000|2014-10-02|2017-10-03|2B|Privado|15994| 5| 5154
CAR|CCO|CARIMAGUA|Puerto López|Meta|Aeródromo|4.5649|-71.3367|ICA|EL MISMO|1336|23|25000||700|  657,000|||3B|Público|2033|50|50573
CAS||CASA COIMA|Mutatá|Antioquia|Aeródromo|||||||||||||||8| 5| 5480
CAT||CALICANTO|Alvarado|Tolima|Aeródromo|4.4878|-75.0106|ERNESTO NAVARRO Y CIA|CRUZ VERDE|640|10|3000||2166| 1735,000|||1A|Fumigación|1|73|73026
CAV||CUMACHAGUA|Santa Rosalía|Vichada|Aeródromo|4.0167|-70.8833|CORREGIMIENTO(MUNICIPIO)|CORREGIMIENTO(MUNICIPIO)|547|35|2500||440| 3660,000|||1A|Público|22|99|99624
CBA||LOS GAVANES|Cabuyaro|Meta|Aeródromo|4.2078|-72.9822|FAGAN S. EN C.|FAGAN S. EN C.|680|15|2000||850| 5185,000||2016-10-03|1A|Fumigación|21|50|50124
CBR||EL CARMEN DE BOLIVAR|El Carmen de Bolívar|Bolívar|Aeródromo|9.6842|-75.1261|MUNICIPIO|MUNICIPIO|1500|28|12202||590|  247,000|||3C|Público|73|13|13244
CBU||PETRIBA|Cabuyaro|Meta|Aeródromo|4.3617|-72.8275|GRACER S.A.|ASAM LTDA|850|10|2000||620| 2003,000|||1A|Fumigación|1|50|50124
CBY||LA ARABIA|Cabuyaro|Meta|Aeródromo|4.3933|-72.9892|GERMAN REYES GARCIA|SADELL  LTDA.|800|10|2000||577| 4736,000||2015-09-11|1A|Fumigación|6|50|50124
CCH||EL PACIFICO|Cartagena del Chairá|Caquetá|Aeródromo|||||||||||||||1|18|18150
CDA||LA ESMERALDA - CA|Candelaria|Valle del Cauca|Aeródromo|3.38|-76.3983|INCAUCA S.A.|INCAUCA S.A.|250|10|500||3166| 2957,000|||1A|Fumigación|21|76|76130
CDY||CIUDAD YARI|San Vicente del Caguán|Caquetá|Aeródromo|1.5833|-73.8667|MUNICIPIO|MUNICIPIO|880|40|12202||1000| 3660,000|||1A|Público|5|18|18753
CEB||EL CEBRUNO|Ayapel|Córdoba|Aeródromo|8.3292|-75.1323|MUNICIPIO AYAPEL|MUNICIPIO AYAPEL|944|15|5670||1280| 7092,000|||2A|Público|125|23|23068
CFB||CALIFORNIA|Morales|Bolívar|Aeródromo|||||||||||||||1|13|13473
CGA||LA CEIBA|Ciénaga|Magdalena|Aeródromo|10.7913|-74.1049|CALIMA S.A.|CALIMA S.A.|740|10|4500||147| 1837,000||2016-05-03|1A|Fumigación|2|47|47189
CGW|CRC|SANTA ANA|Cartago|Valle del Cauca|Aeródromo|4.7584|-75.9561|MUNICIPIO|MUNICIPIO|2200|40|||2977| 1319,000|||4D|Público|1103|76|76147
CHA||CHICORAL ESTRA|Espinal|Tolima|Aeródromo|4.2022|-74.9697|ESTRA LTDA|ESTRA LTDA|620|10|2000||1270| 5613,000|||1A|Fumigación|3|73|73268
CHM||CHAPARRAL|San Martín|Meta|Aeródromo|||||||||||||||1|50|50689
CHO||CHICAMOCHA|Villavicencio|Meta|Aeródromo|||||||||||||||9|50|50001
CHP||LA CHAPA|Hato Corozal|Casanare|Aeródromo|5.9333|-71.45|CORREGIMIENTO|CORREGIMIENTO|500|30|3500||620| 3660,000|||1A|Público|14|85|85125
CIE||LA CHEKA|Ciénaga|Magdalena|Aeródromo|10.665|-74.1967|CALIMA S.A.|CALIMA S.A.|660|10|4500||111| 6178,000|||1A|Fumigación|2|47|47189
CIM|CIM|GUSTAVO ROJAS PINILLA|Cimitarra|Santander|Aeródromo|6.3674|-73.9706|AEROCIVIL|AEROCIVIL|1500|40|12202||735|  644,000|1967-06-05||3C|Aerocivil|338|68|68190
CJI||LA LIBELULA|Cajicá|Cundinamarca|Aeródromo|||||||||||||||1|25|25126
CLA||LA UNION|Castilla la Nueva|Meta|Aeródromo|3.3317|-73.295|RUBIELA AVILA S.|COMERCIALIZADORA ECO|750|10|2000||250| 4941,000||2015-11-06|1A|Fumigación|22|50|50150
CLM||CALAMAR GUAVIARE|San José del Guaviare|Guaviare|Aeródromo|1.9624|-72.645|MUNICIPIO|MUNICIPIO|1000|16|2950||540|  538,000|||2A|Público|1380|95|95001
CLO|CLO|ALFONSO BONILLA ARAGON|Palmira|Valle del Cauca|Internacional|3.5431|-76.3817|AEROCIVIL|CONCESION AEROCALI S.A.|3000|45|||3174|  984,000|1987-02-02||4E|Aerocivil|207439|76|76520
CMA||CANAIMA|Villavicencio|Meta|Aeródromo|||||||||||||||8|50|50001
CMP||CAMPOALEGRE|Campoalegre|Huila|Aeródromo|||||||||||||||38|41|41132
CMR||LA MARIA|Cumaral|Meta|Aeródromo|4.2436|-73.2131|HELICE LTDA.|HELICE LTDA.|660|15|2000||738|  117,000||2018-03-09|1A|Fumigación|15|50|50226
CNL||LAS CAÑAS|Candelaria|Valle del Cauca|Aeródromo|3.3064|-76.3357|MAR 2 S.A.S.|FUMIVALLE|740|15|4500||3451| 1213,000||2016-05-09|1A|Fumigación||76|76130
CNU||SAN VICENTE|Castilla la Nueva|Meta|Aeródromo|3.8111|-73.4372|JOSE S. VANEGAS|FARO LTDA.|800|10|2000||977|  689,000|||1A|Fumigación|1|50|50150
COA||COFA -PALMIRA|Palmira|Valle del Cauca|Aeródromo|||||||||||||||1|76|76520
COG|COG|CONDOTO MANDINGA|Condoto|Chocó|Regional|5.072|-76.6766|AEROCIVIL|AEROCIVIL|1150|18|||166|  984,000|1987-02-02||2C|Aerocivil|5130|27|27205
COL||COLOMBAIMA|Beltrán|Cundinamarca|Aeródromo|||||||||||||||3|25|25086
COZ||TAMACA|Agustín Codazzi|Cesar|Aeródromo|||||||||||||||4|20|20013
CPB|CPB|CAPURGANA|Acandí|Chocó|Regional|8.6305|-77.3502|ACCION COMUNAL|ACCION COMUNAL|950|10|||12| 1784,000|||1A|Público|6004|27|27006
CPC||CUPICA|Bahía Solano|Chocó|Aeródromo|6.6987|-77.4832|ALCALDIA|ALCALDIA|870|15|||16| 5732,000|||1A|Público|341|27|27075
CPE||CAPELLANIA|Ariguaní|Magdalena|Aeródromo|||||||||||||||1|47|47058
CPL|CPL|NAVAS PARDO|Chaparral|Tolima|Aeródromo|3.7238|-75.4654|AEROCIVIL|AEROCIVIL|1200|15|||2729|  499,000|1968-07-20||2C|Aerocivil|538|73|73168
CRA||CINERA|San José de Cúcuta|Norte de Santander|Aeródromo|8.1708|-72.4746|ASOZULIA|ASOZULIA|900|10|5000||305| 6327,000|||1A|Fumigación|92|54|54001
CRL||SANTA BARBARA|Cumaral|Meta|Aeródromo|4.2329|-73.2523|UNIPALMA S.A.|UNIPALMA S.A.|850|18|3000||800| 7055,000|||1A|Privado|63|50|50226
CRM||CURUMANI|Curumaní|Cesar|Aeródromo|||||||||||||||46|20|20228
CRN||CORRAL NUEVO|Plato|Magdalena|Aeródromo|||||||||||||||58|47|47555
CRR||CERRITOS|Ambalema|Tolima|Aeródromo|4.8422|-74.7758|URUEÑA Y VILLA CIA S. EN C.|SANIDAD VEGETAL CRUZ|640|10|2000||807| 6174,000|||1A|Fumigación||73|73030
CRS||CRAVO SUR|Yopal|Casanare|Aeródromo|||||||||||||||4|85|85001
CRU|CUO|CARURU|Carurú|Vaupés|Aeródromo|1.0135|-71.2961|MUNICIPIO|MUNICIPIO|1000|20|12200||646|   62,000|||2B|Público|4108|97|97161
CRY||EL VERGEL|Cabuyaro|Meta|Aeródromo|4.2065|-73.0026|AVIAL LTDA|AVIAL LTDA.|740|15|2000||540|  998,000|||1A|Fumigación|2|50|50124
CST||CENTRAL CASTILLA|Pradera|Valle del Cauca|Aeródromo|3.3629|-76.2891|RIOPAILA CASTILLA S.A.|RIOPAILA CASTILLA  S.A.|1000|10|5670||204| 4735,000||2016-09-10|1A|Fumigación||76|76563
CTG|CTG|RAFAEL NUÑEZ|Cartagena de Indias|Bolívar|Internacional|10.442|-75.5123|AEROCIVIL|CONCESION-SACSA|2380|45|||7| 4501,000|2012-08-16||4D|Aerocivil|131998|13|13001
CTO||INGENIO LA CABAÑA -C.A.|Aipe|Huila|Aeródromo|3.1749|-75.3983|INGENIO LA CABAÑA S.A.|INGENIO LA CABAÑA S.A.|340|10|500||3329| 2953,000||2015-08-05|1A|Fumigación|1|41|41016
CTP||COTOPRIX|Riohacha|La Guajira|Aeródromo|||||||||||||||2|44|44001
CUA||LAS DELICIAS|Cumaral|Meta|Aeródromo|||||||||||||||6|50|50226
CUC|CUC|CAMILO DAZA|San José de Cúcuta|Norte de Santander|Internacional|7.9274|-72.5116|AEROCIVIL|AEROCIVIL -ORIENTE S.A.S.|1920|45|||1027|  984,000|1987-02-02||4D|Aerocivil|72216|54|54001
CUC|CUC|CAMILO DAZA No.2|San José de Cúcuta|Norte de Santander|Internacional|7.9274|-72.5116|AEROCIVIL|AEROCIVIL -ORIENTE S.A.S.|2320|45|||1027|  984,000|1987-02-02||4A|Aerocivil||54|54001
CUM||EL VISO|Campoalegre|Huila|Aeródromo|2.7313|-75.3219|SANIDAD VEGETAL CRUZ VERDE|SANIDAD VEGETAL CRUZ VERDE|600|10|2500||1299| 2136,000|||1A|Fumigación|20|41|41132
CUS|TAU|CUSIANA|Tauramena|Casanare|Aeródromo|4.9633|-72.6281|ALFONSO HUM. FERNANDEZ|CELTA LTDA.|700|10|2000||886| 7274,000|||1A|Fumigación|4|85|85410
CUT||CUATRO VIENTOS - CA|Melgar|Tolima|Aeródromo|4.2188|-74.7278|SOCIEDAD CAMILO POSADA Y CIA|CLUB ULTR-LA LIBELULA|250|10|500||1025| 1841,000|||UL|Privado||73|73449
CVN|CVE|COVEÑAS|Coveñas|Sucre|Aeródromo|9.401|-75.6913|ARC MINDEFENSA|ARC MINDEFENSA|1220|28|12202||31|  984,000|||2C|Militar|875|70|70221
CVT||CRUZ VERDE|Ibagué|Tolima|Aeródromo|4.3917|-75.1327|CRUZ VERDE|CRUZ VERDE|540|10|2000||3041| 1735,000|||1A|Fumigación|6|73|73001
CYO||EL EDEN|Cabuyaro|Meta|Aeródromo|||||||||||||||1|50|50124
CZI||LA DILIA|Agustín Codazzi|Cesar|Aeródromo|||||||||||||||11|20|20013
CZU|CZU|LAS BRUJAS|Corozal|Sucre|Regional|9.3325|-75.2853|AEROCIVIL|EN CONCESION-SOACN(Sociedad Operadora de Aeropuertos Centro Norte|1430|22|||519| 1862,000|1971-07-19||3C|Aerocivil|14822|70|70215
DAR||DARIEN CALIMA|Calima|Valle del Cauca|Aeródromo|||||||||||||||2|76|76126
DJV|SJH|SAN JUAN DEL CESAR|San Juan del Cesar|La Guajira|Aeródromo|10.7419|-72.9911|MUNICIPIO|MUNICIPIO|800|15|5700||696| 5855,000|||1A|Público|2|44|44650
DZI||FADECO|Agustín Codazzi|Cesar|Aeródromo|||||||||||||||506|20|20013
EAS||EL ALGARROBO|San Marcos|Sucre|Aeródromo|||||||||||||||354|70|70708
EBG|EBG|EL TOMIN|El Bagre|Antioquia|Regional|7.5965|-74.8089|SOCIEDAD MINEROS A/QUIA|EL MUNICIPIO|1300|15|||180| 2443,000|||1A|Público|6662| 5| 5250
ECB||EL ACEITUNO|Ibagué|Tolima|Aeródromo|4.3481|-75.0245|CULTIVOS Y SEMILLAS EL ACEITU|CRUZ VERDE|720|10|4500||2277| 5916,000|||1A|Fumigación|3|73|73001
ECC||EL CARMEN DE CHUCURI|El Carmen de Chucurí|Santander|Aeródromo|6.7406|-73.5544|MUNICIPIO|MUNICIPIO|700|12|12000||1200| 2488,000|||1A|Público|203|68|68235
ECJ||EL CORAJE|Ariguaní|Magdalena|Aeródromo|||||||||||||||30|47|47058
ECM||EL CARMEN DE GUAMAL|Guamal|Magdalena|Aeródromo|9.1703|-74.2119|MUNICIPIO|MUNICIPIO|870|27|2300||75| 3660,000|||1A|Público||47|47318
ECO||ECOPETROL|Barrancabermeja|Santander|Aeródromo|||||||||||||||5|68|68081
ECR||EL CHORRO|Gamarra|Cesar|Aeródromo|||||||||||||||1|20|20295
ECU||LA FE|El Copey|Cesar|Aeródromo|10.1302|-74.0383|PALMERAS DE LA COSTA|PALMERAS DE LA COSTA|850|15|5000||304| 2496,000|||1A|Privado|2|20|20238
EEA||EL ESFUERZO|Manatí|Atlántico|Aeródromo|10.4119|-74.9619|INAT|INAT|717|12|2000||140| 2989,000|||1A|Público|| 8| 8436
EEB||EL ESPINO|El Espino|Boyacá|Aeródromo|6.4883|-72.5047|MUNICIPIO|MUNICIPIO|820|15|5670||7119| 4239,000|||1B|Público|2|15|15248
EET||EL ESCOBAL|Ibagué|Tolima|Aeródromo|4.3956|-75.0708|INVERSIONES AGROPECUARIAS DOIMA|SANIDAD VEGETAL CRUZ|600|13|2000||2450|  401,000|2014-01-31|2017-03-07|1A|Fumigación||73|73001
EGI||EL GILGAL|Acandí|Chocó|Aeródromo|||||||||||||||2|27|27006
EGY||EL GUAYABAL|Patía|Cauca|Aeródromo|2.08|-76.9827|ERNESTO DE LIMA LEFRANC|ERNESTO DE LIMA LEFRANC|950|15|2500||2697| 5621,000||2016-11-12|1A|Privado||19|19532
EJA|EJA|YARIGUIES|Barrancabermeja|Santander|Nacional|7.0244|-73.8068|AEROCIVIL|AEROCIVIL -ORIENTE S.A.S.|1800|45|61100||414|  115,000|1965-09-02||3C|Aerocivil|27366|68|68081
EJU||EL JUNCAL|Palermo|Huila|Aeródromo|2.8471|-75.3133|ASOJUNCAL|SANIDAD VEGETAL CRUZ VERDE|620|10|2000||1509| 4949,000|2010-10-01||1A|Fumigación|2|41|41524
ELA|ECR|EL CHARCO|El Charco|Nariño|Aeródromo|2.4408|-78.1|MUNICIPIO|MUNICIPIO|800|12|6400||32|  737,000|||1A|Público|1419|52|52250
ELB|ELB|LAS FLORES|El Banco|Magdalena|Aeródromo|9.0428|-73.9715|AEROCIVIL|AEROCIVIL|1225|28|19045||110| 1374,000|1978-04-06||3B|Aerocivil|589|47|47245
ELC||EL CAIRO|Castilla la Nueva|Meta|Aeródromo|||||||||||||||2|50|50150
ELE||EL RECREO|San Luis de Palenque|Casanare|Aeródromo|5.3206|-72.5778|HENRY POLANIA C.|SAO E.U.|840|10|2000||551| 2495,000||2017-06-10|1A|Fumigación|37|85|85325
ELH||EL LIMONAR|Campoalegre|Huila|Aeródromo|2.6205|-75.3624|SANIDAD VEGETAL CRUZ VERDE|SANIDAD VEGETAL CRUZ VERDE|600|10|2500||1936| 2136,000|||1A|Fumigación|6|41|41132
ELI||EL PARAISO|Nunchía|Casanare|Aeródromo|5.5576|-72.0041|JULIO PEREZ MORA|SANAR LTDA.|900|10|2000||669| 4943,000|||1A|Fumigación|2|85|85225
ELM||EL MARNE|Rionegro|Santander|Aeródromo|7.4233|-73.3806|JORGE LUIS OTERO SANCHEZ|JORGE LUIS OTERO SANCHEZ|760|18|4000||416| 4874,000|||1A|Privado|575|68|68615
ELO||EL RODEO|Orocué|Casanare|Aeródromo|||||||||||||||49|85|85230
ELP||EL PAILON|Candelaria|Valle del Cauca|Aeródromo|||||||||||||||1|76|76130
ELR||EL RECUERDO|Flandes|Tolima|Aeródromo|||||||||||||||1|73|73275
ELS||COMUNEROS|Socorro|Santander|Aeródromo|6.3835|-73.2573|MUNICIPIO|MUNICIPIO|720|15|5000||5250|  306,000|||1A|Público|37|68|68755
ELT||INGENIO PROVIDENCIA|El Cerrito|Valle del Cauca|Aeródromo|3.6383|-76.3038|INGENIO PROVIDENCIA|ING. PROVIDENCIA-ASOCAÑA|250|10|500||3667| 2959,000||2015-08-05|1A|Fumigación|1|76|76248
ELU||EL RUBY|Castilla la Nueva|Meta|Aeródromo|3.7811|-73.4817|NATALY RODRIGUEZ|FARO LTDA.|670|10|2000||987|  689,000|||1A|Fumigación|1|50|50150
ELZ||EL ZAMURO|Yopal|Casanare|Aeródromo|5.1244|-72.3369|BERNARDO CEDANO SABOGAL|SFA. LTDA|860|10|2000||656| 5611,000||2015-10-09|1A|Fumigación||85|85001
EOC||EL RETIRO|San Vicente del Caguán|Caquetá|Aeródromo|||||||||||||||16|18|18753
EOH|EOH|OLAYA HERRERA|Medellín|Antioquia|Nacional|6.2204|-75.5904|INVIAS|EN CONCESION-SOACN(Sociedad Operadora de Aeropuertos Centro Norte)|1800|38|20455||4920| 1466,000|||1A|Aerocivil|293591| 5| 5001
EPR||EL PARAISO|Ibagué|Tolima|Aeródromo|4.387|-75.026|JOSE M. MELENDRO|CRUZ VERDE|630|10|2000||2303| 1735,000|||1A|Fumigación|10|73|73001
EPY||CAYTA|El Copey|Cesar|Aeródromo|||||||||||||||6|20|20238
ESP||ASTA|Espinal|Tolima|Aeródromo|||||||||||||||5|73|73268
ESS||ANIVERSARIO ESTRA|Espinal|Tolima|Aeródromo|4.125|-74.9086|ESTRA LTDA|ESTRA LTDA|600|10|3000||1079| 5613,000|||1A|Fumigación||73|73268
ETA||EL TAPON|Puerto Carreño|Vichada|Aeródromo|5.15|-69.1833|INDERENA|INDERENA|1080|20|12202||500| 1412,000|||2B|Público|2|99|99001
ETO||EL TORNILLO|Rionegro|Santander|Aeródromo|7.6222|-73.608|INVERSIONES GERBEL S.A.S.|CELTA LTDA.|1020|18|2000||230| 7086,000|||1A|Fumigación|41|68|68615
ETR||EL TRIUNFO|Ambalema|Tolima|Aeródromo|4.8647|-74.8037|ORGANIZACIÓN PAJONALES S.A.|ORGANIZACIÓN PAJONALES|900|15|4000||840|  390,000|||2A|Fumigación|1|73|73030
EVC||EL VIGIA|Villanueva|Casanare|Aeródromo|4.5543|-72.9157|EDUARDO VALENZUELA PLATA|FUMIVILLA LTDA|660|10|2000||662| 2471,000||2016-06-12|1A|Fumigación|5|85|85440
EYP|EYP|EL ALCARAVAN|Yopal|Casanare|Nacional|5.3191|-72.3842|AEROCIVIL|AEROCIVIL|2250|30|||1016|  984,000|1987-02-02||3C|Aerocivil|92726|85|85001
FCA||FASCA|Aguazul|Casanare|Aeródromo|5.1553|-72.5208|SFA LTDA.|SFA. LTDA.|750|10|2000||868| 7054,000|||1A|Fumigación|257|85|85010
FDA||FUNDACION|Fundación|Magdalena|Aeródromo|||||||||||||||16|47|47288
FEO||GUANAYAS|Fuente de Oro|Meta|Aeródromo|3.354|-73.5778|RAFAEL AYALA CELY INV. GUANAYA Y CIA S EN C.|RAFAEL AYALA ..INVERSIONES GUANAYAS|820|10|2000||820| 5067,000|||1A|Fumigación||50|50287
FLA|FLA|GUSTAVO ARTUNDUAGA PAREDES|Florencia|Caquetá|Nacional|1.589|-75.5643|AEROCIVIL|AEROCIVIL|1500|30|||803|  984,000|1987-02-02||3C|Aerocivil|16997|18|18001
FLD||AEROSPORT - C.A.|Flandes|Tolima|Aeródromo|4.2331|-74.8347|CLUB COLOMBIANO DE AVIA.|CLUB. COL.AVIACION DEPORTIVA|350|10|500||1030| 7240,000|||UL|Privado|1|73|73275
FLR||LAS FLORES|Agustín Codazzi|Cesar|Aeródromo|||||||||||||||5|20|20013
FNO||LA CANDELARIA|Fuente de Oro|Meta|Aeródromo|3.4214|-73.7258|GIOVANNI H.  OROZCO MOJICA|FARI LTDA|726|10|2000||984| 1658,000|||1A|Fumigación|6|50|50287
FOO||LA LUNA|Fuente de Oro|Meta|Aeródromo|3.4492|-73.5844|GIOVANNI OROZCO|FARI LTDA|800|10|2000||935| 4445,000|||1A|Fumigación|10|50|50287
FRO||FRONTINO EL PLATEADO|Frontino|Antioquia|Aeródromo|6.7221|-76.1465|MUNICIPIO|MUNICIPIO|800|18|5000||5577| 5958,000|||1A|Público|276| 5| 5284
FTE||CAÑO BLANCO|Fuente de Oro|Meta|Aeródromo|||||||||||||||6|50|50287
FUL||SAN LUIS|Fuente de Oro|Meta|Aeródromo|3.5019|-73.6697|FARI LTDA.|FARI LTDA|1000|15|2000||980| 4506,000||2015-10-02|2A|Fumigación|31|50|50287
FUN||ALGARROBO FANOR|Fundación|Magdalena|Aeródromo|||||||||||||||3|47|47288
FUO||MAJAGUAL|Fuente de Oro|Meta|Aeródromo|3.3903|-73.6964|MARIO GUTIERREZ PERDOMO|ASEM LTDA.|940|10|3000||1049| 2949,000||2016-07-10|1A|Fumigación||50|50287
FUR||HALCONES|Fuente de Oro|Meta|Aeródromo|3.3731|-73.6133|FARI LTDA.|FARI LTDA|700|10|2000||853| 1658,000|||1A|Fumigación||50|50287
FUT||LOS SABANALES|Fuente de Oro|Meta|Aeródromo|3.3697|-73.4639|MISAEL RODRIGUEZ CASTAÑEDA|FAGA LTDA.|720|10|2000||849|   76,000|||1A|Fumigación|1|50|50287
GAM||LA NENA CAYTA|Gamarra|Cesar|Aeródromo|||||||||||||||24|20|20295
GAN||EL PROGRESO|Granada|Meta|Aeródromo|||||||||||||||57|50|50313
GCA|GCA|GUACAMAYAS|San Vicente del Caguán|Caquetá|Aeródromo|2.2833|-74.95|CORREGIMIENTO(MUNICIPIO)|CORREGIMIENTO(MUNICIPIO)|810|18|11500||1500| 3660,000|||1A|Público|4|18|18753
GER||GERMANIA|Gamarra|Cesar|Aeródromo|8.3306|-73.6949|INVERSIONES GERBEL S.A.S.|CELTA LTDA.|950|14|2000||246| 7086,000|||1A|Fumigación|40|20|20295
GIR|GIR|SANTIAGO VILA|Flandes|Tolima|Regional|4.2753|-74.7961|AEROCIVIL|AEROCIVIL|1600|28|||931|  115,000|||3C|Aerocivil|2143|73|73275
GLJ||LA JAGUA|Garzón|Huila|Aeródromo|2.1464|-75.6942|MINISTERIO DE DEFENSA|EJERCITO NACIONAL|1334|40|12202||2622|  984,000|||2B|Militar|170|41|41298
GMO||EL GUAMO ASTA|Guamo|Tolima|Aeródromo|3.9976|-74.9576|ASTA S.A.|SANIDAD VEGETAL CRUZ|650|10|2000||1119| 6175,000|||1A|Fumigación||73|73319
GOV||GUADUALITO|Palmira|Valle del Cauca|Aeródromo|||||||||||||||17|76|76520
GPI|GPI|JUAN CASIANO|Guapí|Cauca|Regional|2.57|-77.898|AEROCIVIL|AEROCIVIL|1300|16|||164|  245,000|1960-08-17||3C|Aerocivil|7490|19|19318
GRM||GUERIMA|Puerto Carreño|Vichada|Aeródromo|3.6299|-70.3231|GOBERNACION|DEPARTAMENTO|1220|20|||416|13268,000|||2B|Público|1744|99|99001
GRN||MALVINAS|Granada|Meta|Aeródromo|3.4208|-73.7653|FREDY REYES VALDERRAMA|SADELL S.A.S.|700|10|2000||1150| 1124,000|||1A|Fumigación|97|50|50313
GTT||GANADERIA EL TRIUNFO|Honda|Tolima|Aeródromo|5.1694|-74.7652|GARETH HYWEL HUGHES ART.|GARETH HYWEL HUGHES ART.|900|18|3000||774|  704,000||2017-03-07|1A|Privado||73|73349
GUE||LA ESTRELLA|Guacarí|Valle del Cauca|Aeródromo|||||||||||||||6|76|76318
GUI||GUINULERO|San Andrés de Tumaco|Nariño|Aeródromo|||||||||||||||5|52|52835
GUN||GUAMITOS|Palermo|Huila|Aeródromo|2.9142|-75.3967|AGROPECUARIA GUAMITOS LTDA|TEA S.A.|690|10|2000||1817|||2013-03-12|1A|Fumigación||41|41524
GUR||LA BASE FUMIVALLE|Guacarí|Valle del Cauca|Aeródromo|3.7766|-76.3217|MAR 2 S.A.S.|ARFA S.A.|640|10|2000||3278|  400,000||2017-02-06|1A|Fumigación|4|76|76318
GUS||GUSTAVO ROJAS PINILLA|Tunja|Boyacá|Aeródromo|5.5423|-73.3443|AEROCIVIL|COMODATO MUNICIPIO|1100|20|5670||8954| 1291,000|||2A|Aerocivil|604|15|15001
GUT||GUADALAJARA|Ibagué|Tolima|Aeródromo|4.3869|-75.1566|HELICE|HELICE|900|10|3000||3005|  168,000|||1A|Fumigación||73|73001
GYM||FLAMINIO S. CAMACHO|Chía|Cundinamarca|Aeródromo|4.8125|-74.0651|AEROCIVIL|AEROCIVIL|1720|20|7000||8386|  984,000|1987-02-02||2B|Aerocivil|4571|25|25175
HAC||EL TRIUNFO|Puerto Triunfo|Antioquia|Aeródromo|5.9222|-74.7258|MUNICIPIO|MUNICIPIO|1150|11|7000||820| 2070,000||2014-06-10|2A|Público|860| 5| 5591
HCO||EL CAIRO|Hato Corozal|Casanare|Aeródromo|6.0647|-71.2044|ELVIRA SARMIENTO|ELVIRA SARMIENTO|700|15|2000||443| 5835,000||2016-12-04|1A|Privado|111|85|85125
HCZ||HATO LA AURORA|Hato Corozal|Casanare|Aeródromo|6.0331|-71.3819|LIGIA PLATA Y OTRO|BARRAGAN PLATA JORGE|800|15|3500||485| 6728,000|||1A|Privado|26|85|85125
HEA||HELIVALLE|Palmira|Valle del Cauca|Aeródromo||||||||||||||||76|76520
HEV||LA ELVIRA|Obando|Valle del Cauca|Aeródromo|4.6159|-75.9659|FUMINORTE S.A.S.|FUMINORTE S.A.S.|740|12|2000||3083| 5965,000|||1A|Fumigación||76|76497
HLE||HATO LA ESPERANZA|Puerto Gaitán|Meta|Aeródromo|||||||||||||||4|50|50568
HOA||HOSPITAL DE CALDAS|Manizales|Caldas|Aeródromo|||||||||||||||2|17|17001
HOB||HONDURAS|María la Baja|Bolívar|Aeródromo|9.9722|-75.3742|INCORA LTDA|EL MISMO|800|10|2000||50|  804,000|||1A|Público||13|13442
HOP||HATO DE OPIA|Ibagué|Tolima|Aeródromo|4.4232|-75.0013|INBERAR LTDA.|CRUZ VERDE|540|10|2000||2703| 1735,000|||1A|Fumigación|1|73|73001
HRA|HRR|LA HERRERA|Rioblanco|Tolima|Aeródromo|3.2167|-75.85|MUNICIPIO|MUNICIPIO|430|10|5760||5740| 3660,000|||1A|Público||73|73616
HTC||EL DANUBIO|Hato Corozal|Casanare|Aeródromo|6.2611|-71.2247|CARMEN DELIA DELGADO|CARMEN DELIA DELGADO|740|15|2400||440| 4315,000|||1A|Privado|35|85|85125
HTZ|HTZ|HATO COROZAL|Hato Corozal|Casanare|Aeródromo|6.1535|-71.7616|AEROCIVIL|AEROCIVIL|1040|14|12202||830|  502,000|1967-05-05||2C|Aerocivil|195|85|85125
IBE|IBE|PERALES|Ibagué|Tolima|Nacional|4.4217|-75.1336|AEROCIVIL|AEROCIVIL|1800|30|||3114|  984,000|1987-02-02||3C|Aerocivil|36819|73|73001
IDA||CESAR GAVIRIA TRUJILLO|Inírida|Guainía|Regional|3.8536|-67.9063|GOBERNACION|GOBERNACION|1930|30|||311|  499,000|||3C|Público|4942|94|94001
IGO|IGO|JAIME ORTIZ BETANCUR|Chigorodó|Antioquia|Aeródromo|7.6772|-76.683|MUNICIPIO|MUNICIPIO|840|18|6400||170| 4545,000|2012-08-17||1A|Público|250| 5| 5172
INA||INDIRA|Turbo|Antioquia|Aeródromo|7.9444|-76.6969|UNIBAN|CALIMA S.A.|870|15|4500||33| 1425,000|||1A|Fumigación|5| 5| 5837
IPI|IPI|SAN LUIS|Aldana|Nariño|Internacional|0.8619|-77.6718|AEROCIVIL|AEROCIVIL|1770|28|||9740|  455,000|1969-05-19||3C|Aerocivil|4193|52|52022
IRH||IRHO|San Alberto|Cesar|Aeródromo|7.7345|-73.4343|INDUPALMA LTDA.|INDUPALMA LTDA.|730|15|5000||305|  170,000||2018-02-12|1A|Fumigación|561|20|20710
ISP||ISA|Palmira|Valle del Cauca|Aeródromo|||||||||||||||1|76|76520
ITG||LA PROVIDENCIA|Ituango|Antioquia|Aeródromo|7.1653|-75.7253|MUNICIPIO|MUNICIPIO|750|12|6000||5166|   39,000||2018-02-01|1A|Público|1127| 5| 5361
ITU||ITUANGO|Ituango|Antioquia|Aeródromo|||||||||||||||8| 5| 5361
JAB||JABALCON|Saldaña|Tolima|Aeródromo|3.8422|-75.0336|INCORA LTDA|INCORA|740|10|2000||984|  984,000|||1A|Público|2|73|73671
JDI||UDELVA - CA|Jamundí|Valle del Cauca|Aeródromo|3.2354|-76.5047|ERNESTO ANDRADE Y OTROS|CLUB AEREO DEPORTIVO UL.|320|10|400||3200| 4502,000||2015-09-04|UL|Privado||76|76364
JUR|JUO|JURADO|Juradó|Chocó|Aeródromo|7.0731|-77.7285|MUNICIPIO|MUNICIPIO|800|20|6671||13| 1503,000|||1A|Público|552|27|27372
LAA||LA BASTILLA|Guamo|Tolima|Aeródromo|4.0899|-74.9071|INVERSIONES BAZARA S.A.|SANIDAD VEGETAL CRUZ|700|10|2000||1112| 5385,000||2017-11-05|1A|Fumigación|3|73|73319
LAB||LA  BARQUEREÑA|Nunchía|Casanare|Aeródromo|||||||||||||||9|85|85225
LAC||LA CABAÑA|Cumaral|Meta|Aeródromo|4.3019|-73.3697|HACIENDA LA CABAÑA|HACIENDA LA CABAÑA|1000|10|5500||175|  688,000||2018-04-07|1A|Privado|7|50|50226
LAD||LA DILIA|Agustín Codazzi|Cesar|Aeródromo|9.8985|-73.4221|MURGAS MUÑOZ HERMANOS|CARLOS R. MURGAS G.|800|15|5000||312| 4625,000||2010-10-01|1A|Privado|7|20|20013
LAE||LA PALESTINA|Palestina|Caldas|Aeródromo|5.0333|-75.6204|MUNICIPIO DE MANIZALES|INFICALDAS-INFIMANIZALES|1800|30|||4723| 5364,000|||4C|Público|1|17|17524
LAF||LA FUGA|Puerto López|Meta|Aeródromo|4.0564|-72.2481|INVERSIONES CALDERON DOUSDEBES|CARLOS A. GUTIERREZ C.|870|10|3000||656| 5963,000|||1A|Privado||50|50573
LAH||LA CAMPECHANA|Maní|Casanare|Aeródromo|4.8871|-72.3151|JOSE A. ROSAS BARRERA|FUMIVILLA LTDA|800|10|2000||609| 2138,000|||1A|Fumigación|1|85|85139
LAJ||LAJITAS|Puerto López|Meta|Aeródromo|4.1564|-72.9076|COMPENSAR|COMPENSAR|800|15|5000||787| 6350,000||2015-12-04|1A|Privado|6|50|50573
LAL||CRAVO SUR (antes la pista)|Orocué|Casanare|Aeródromo|4.8274|-71.6626|J.LONDOÑO R Y CIA|J.LONDOÑO R Y CIA|800|18|4500||482| 5384,000||2017-11-04|1A|Privado|52|85|85230
LAM||LA COLINA|Villavicencio|Meta|Aeródromo|4.0644|-73.3839|ERNESTO PEDRAZA GALEANO|AEROTEC LTDA.|850|19|6250||1058|  691,000|||1A|Fumigación|145|50|50001
LAO||LOS ALMENDROS|Carepa|Antioquia|Aeródromo|7.8083|-76.6519|SANVEL. LTDA.|FUMIGARAY|700|16|4000||134| 1314,000|||1A|Fumigación|32| 5| 5147
LAP||LA CARPETA|Paz de Ariporo|Casanare|Aeródromo|||||||||||||||1|85|85250
LAR||LA ARROBLEDA|Caloto|Cauca|Aeródromo|3.1023|-76.419|INCUBADORA SANTANDER|INCUBADORA SANTANDER|780|15|5700||3320| 6472,000||2016-12-02|1A|Privado|1264|19|19142
LAT||LA MATUA|San Diego|Cesar|Aeródromo|||||||||||||||1|20|20750
LAU||LAS JUANAS|Castilla la Nueva|Meta|Aeródromo|3.8233|-73.5322|GILBERTO GALINDO M.|SADELL  LTDA.|690|10|3000||1082| 4735,000|||1A|Fumigación|7|50|50150
LAV||LA VICTORIA|La Paz|Cesar|Aeródromo|10.0621|-73.2583|AMA LTDA.|AMA LTDA.|800|18|2000||300| 3939,000|||1A|Fumigación|2|20|20621
LAY||LA YE|Ciénaga|Magdalena|Aeródromo|11.0038|-74.2133|INVERSIONES AGROPECUARIAS DEL LITORAL LTDA.|CALIMA S.A.|930|18|4500||55| 3943,000|||1A|Fumigación||47|47189
LBR||LAS BRISAS|Villavicencio|Meta|Aeródromo|||||||||||||||114|50|50001
LCB||LA CAROLINA|Córdoba|Bolívar|Aeródromo|||||||||||||||3|13|13212
LCH|LCR|VIRGILIO BARCO VARGAS|La Chorrera|Amazonas|Regional|-1.4564|-72.8011|CAJA AGRARIA|COMISARIA DEL AMAZONAS|1500|21|||593|  916,000|||2A|Público|1754|91|91405
LCI||LA CACICA|San Martín|Cesar|Aeródromo|7.9861|-73.5779|LA CACICA LTDA.|LA CACICA LTDA.|600|18|3000||265| 5525,000||2017-12-03|1A|Privado|24|20|20770
LCM||LA CANDELARIA|Fuente de Oro|Meta|Aeródromo|||||||||||||||6|50|50287
LCT||LETICIA|Alvarado|Tolima|Aeródromo|4.463|-75.0359|ALVARO SIERRA FIGUEROA|SANIDAD VEGETAL CRUZ|840|10|2000||860| 6352,000|||1A|Fumigación|17|73|73026
LEB||LA GAVIOTA|Plato|Magdalena|Aeródromo|||||||||||||||1|47|47555
LEM||LA ESMERALDA|Villavicencio|Meta|Aeródromo|4.0883|-73.3678|GILMA LOZANO DE G.|ASAM LTDA|700|20|2000||984| 1581,000|||1A|Fumigación|11|50|50001
LET|LET|ALFREDO VASQUEZ COBO|Leticia|Amazonas|Internacional|-4.1918|-69.9422|AEROCIVIL|AEROCIVIL|2010|40|||314|  984,000|||3C|Aerocivil|16372|91|91001
LEV||LA GAVIOTA|La Primavera|Vichada|Aeródromo|4.5505|-70.9254|GOBERNACION|CENTRO LAS GAVIOTAS|1180|18|12202||606| 5796,000|||2B|Público|658|99|99524
LFA||LA FLORA|Yopal|Casanare|Aeródromo|||||||||||||||1|85|85001
LFE||LA FE|Ciénaga|Magdalena|Aeródromo|10.861|-74.1714|MARCO A. GIL PINTO|ASA S. EN C.|800|10|4500||56| 4221,000|||1A|Fumigación|3|47|47189
LFL||LAS FLORES|La Paz|Cesar|Aeródromo|10.0967|-73.2337|SOCIEDAD OLEOFLORES S.A.|SOC. OLEOFLORES S.A.|1300|18|5670||310| 2134,000||2017-05-06|2A|Privado|133|20|20621
LFT||LA FLORESTA|Yaguará|Huila|Aeródromo|||||||||||||||3|41|41885
LGA||LAS GARZAS|Prado|Tolima|Aeródromo|||||||||||||||4|73|73563
LGL||BELLA CRUZ -SAN JUAN|La Gloria|Cesar|Aeródromo|8.6233|-73.7319|SOCIEDAD MR. INVERSIONES LTDA|FASE CUBIDES Y CIA.|750|10|4000||135| 5273,000||2011-01-03|1A|Fumigación|76|20|20383
LGM||LA GAVIOTA MA|Plato|Magdalena|Aeródromo|||||||||||||||24|47|47555
LGP||LAGUNA PAVON|San José del Guaviare|Guaviare|Aeródromo|||||||||||||||108|95|95001
LGT||LAS GAVIOTAS|Puerto Lleras|Meta|Aeródromo|||||||||||||||33|50|50577
LGV||LOS GAVILANES|Guamal|Meta|Aeródromo|||||||||||||||1|50|50318
LHC||LOS HALCONES|Fuente de Oro|Meta|Aeródromo|||||||||||||||1|50|50287
LJB||EL BORREGO|La Jagua de Ibirico|Cesar|Aeródromo|9.5851|-73.4519|DRUMMOND LTD.|DRUMMOND LTD.|1500|29|||253| 5388,000|2014-10-28||3C|Privado|1288|20|20400
LJC||LA JAGUA DE IBIRICO|El Paso|Cesar|Aeródromo|9.6206|-73.5364|FADELCE LTDA|FADELCE LTDA.|880|20|4000||331| 3055,000|||1A|Fumigación|86|20|20250
LJD||CERRO DE PIEDRA|La Jagua de Ibirico|Cesar|Aeródromo|||||||||||||||1501|20|20400
LJI||NUEVA GRANADA|La Jagua de Ibirico|Cesar|Aeródromo|||||||||||||||207|20|20400
LJV||LA JAULA|La Primavera|Vichada|Aeródromo|5.3089|-69.8314|MARIA D. SALAZAR Y OTROS|MARIA C. SALAZAR|1100|20|5000||356|  275,000|||1A|Privado|25|99|99524
LLI||LAS DELICIAS|San Luis de Palenque|Casanare|Aeródromo|5.2075|-71.8136|PERENCO COLOMBIA LIMITED|PERENCO COLOMBIA LIMITED|600|17|12202||460|  933,000|||1A|Privado|3183|85|85325
LLM||LOMA LINDA|Puerto Lleras|Meta|Aeródromo|||||||||||||||10|50|50577
LLO||CALENTURITAS|Recetor|Casanare|Aeródromo|9.6523|-73.4951|C.I.PRODECO|C.I. PRODECO|700|18|6400||190|  996,000||2018-05-07|2A|Privado|4331|85|85279
LMA||JORGE ISAACS (LA MINA)|Maicao|La Guajira|Regional|11.2326|-71.4893|CARBONES DEL CERREJON|CARBONES DEL CERREJON|1700|45|||328|  831,000|||3D|Privado|10262|44|44430
LMC|LMC|LA MACARENA|La Macarena|Meta|Regional|2.1736|-73.7861|MUNICIPIO|MUNICIPIO|1600|15|26000||770| 1940,000|||2C|Público|27136|50|50350
LME||LOS MOCHUELOS|Cereté|Córdoba|Aeródromo|8.9101|-75.7996|FASE LTDA|FASE. LTDA.|800|15|4000||466| 5528,000|||1A|Fumigación|3|23|23162
LML||LAS MALVINAS|Puerto Gaitán|Meta|Aeródromo|||||||||||||||8|50|50568
LMN||LOS MULATOS|El Charco|Nariño|Aeródromo|||||||||||||||624|52|52250
LMR||LOS MORROS|San Onofre|Sucre|Aeródromo|||||||||||||||6|70|70713
LMS||LOS MANGOS|Saldaña|Tolima|Aeródromo|3.9158|-74.9819|JORGE ALVIRA GAMBOA|FUMIVILLA|800|10|2000||1150| 6307,000|||1A|Fumigación||73|73671
LMT||LA MARIA|Purificación|Tolima|Aeródromo|3.8825|-74.9871|ALIANSA S.A.S.|FIBA S.A.|800|10|2000||1059| 1584,000||2017-04-02|1A|Fumigación||73|73585
LOB||LOS BALTICOS|Puerto López|Meta|Aeródromo|4.1286|-73.1319|FERNANDO TOVAR TAMAYO|ECO LTDA.|650|10|2000||686| 3024,000||2014-08-11|1A|Fumigación|1|50|50573
LOC||LOPEZ DE MICAI|López de Micay|Cauca|Aeródromo|2.9539|-77.195|MUNICIPIO|MUNICIPIO|800|16|2300||340|  443,000|||1A|Público|181|19|19418
LOM||LOS MILAGROS|Maní|Casanare|Aeródromo|4.7981|-72.2342|FUMIAGRIC LTDA.|AGIL LTDA.|750|10|2000||410| 2005,000|||1A|Fumigación|141|85|85139
LPA||LA PALMA|Bosconia|Cesar|Aeródromo|9.8394|-73.8672|HERNAN DIEGO PALAU E.|SIMON LOZADA FOMEQUE|940|10|2000||121| 3825,000||2016-08-08|1A|Fumigación|33|20|20060
LPD||LA PEDRERA|La Pedrera|Amazonas|Aeródromo|-1.3243|-69.5816|GOBERNACION|EL MISMO|1050|20|26000||262|  399,000|||2B|Público|2073|91|91407
LPG||EL GAVILAN|La Primavera|Vichada|Aeródromo|5.2554|-69.7342|FRANCISCO MATIZ SALAZAR|FRANCISCO MATIZ S.|1100|18|4800||332| 5915,000||2015-12-03|1A|Privado|18|99|99524
LPL||LOS PLANES|Apartadó|Antioquia|Aeródromo|7.834|-76.6453|UNIBAN|CALIMA S.A.|730|15|4500||108| 1425,000|||1A|Fumigación|79| 5| 5045
LPR||EL CIMARRON|La Primavera|Vichada|Aeródromo|5.9371|-69.2579|PRESTIGE COLOMBIA LTDA|PRESTIGE COLOMBIA L|1000|15|3500||318| 4740,000|||1A|Privado|58|99|99524
LPS||LA PONDEROSA|Puerto Wilches|Santander|Aeródromo|7.4614|-73.7464|PALMAS MONTERREY S.A.|PALMAS MONTERREY|870|15|4000||295| 2087,000|||1A|Privado|22|68|68575
LPV||RANCHO ALEGRE|La Primavera|Vichada|Aeródromo|||||||||||||||235|99|99524
LQM||CAUCAYA|Puerto Leguízamo|Putumayo|Regional|-0.1823|-74.7708|MUNICIPIO|MUNICIPIO|1170|23|28000||609| 6268,000|||2B|Público|5810|86|86573
LRA||SAN JOSE|Lérida|Tolima|Aeródromo|4.911|-74.889|HAROLD IVAN BENAVIDES|FIBA LTDA|680|10|2000||866| 4311,000|||1A|Fumigación|11|73|73408
LRI||HACIENDA GARCIA|Lérida|Tolima|Aeródromo|4.8531|-74.8892|ALFONSO GUTIERREZ DUSSAN|ALFONSO GUTIERREZ DUSSAN|550|10|2000||1085| 6475,000|||1A|Privado|1|73|73408
LSI||LA SIERRITA|Chiriguaná|Cesar|Aeródromo|9.3867|-73.5089|CARLOS A. CAMARGO C.|FADELCE LTDA|890|10|2000||197|  999,000|||1A|Fumigación||20|20178
LTA||LAS TAPIAS|Tamalameque|Cesar|Aeródromo|8.6781|-73.7694|ACBF Y CIA.|FELIPE D'ACOSTA M.|850|18|3000||131| 6123,000||2018-01-06|1A|Privado|28|20|20787
LTB||LAS GAVIOTAS|La Tebaida|Quindío|Aeródromo|||||||||||||||2|63|63401
LVB||LA VEGA|Zambrano|Bolívar|Aeródromo|9.8552|-74.8918|INVERSIONES AGRORIOS S.A.|INVER. AGRORIOS S.A.|1160|20|7250||656| 5234,000|||2A|Privado|4|13|13894
LVC||LA MESA|La Victoria|Valle del Cauca|Aeródromo|||||||||||||||3|76|76403
LVE||LOS VENADOS|Puerto López|Meta|Aeródromo|||||||||||||||28|50|50573
MAA||MATA DE AGUA|Paz de Ariporo|Casanare|Aeródromo|||||||||||||||4|85|85250
MAG||MANAURE|Manaure|La Guajira|Aeródromo|11.7861|-72.4166|CONCESION DE SALINAS-IFI|CONCESION DE SALINAS-IFI|1332|35|12202||15| 2989,000|||2C|Privado|11|44|44560
MAI||CAMPO ESTERO|Maní|Casanare|Aeródromo|||||||||||||||272|85|85139
MAL||MALABARES|Trinidad|Casanare|Aeródromo|||||||||||||||2|85|85430
MAN||CASANARE|Maní|Casanare|Aeródromo|||||||||||||||6|85|85139
MAP||MAPIRIPAN|Mapiripán|Meta|Aeródromo|2.8973|-72.141|MUNICIPIO|MUNICIPIO|1200|20|12200||670| 5517,000|||2B|Público|5691|50|50325
MBO||MONTERREY|Zambrano|Bolívar|Aeródromo|9.7372|-74.8291|PIZANO S.A.|PIZANO S.A.|1000|15|5000||75| 7145,000|||2A|Privado|50|13|13894
MBQ||BOCOA QUERARI|Mitú|Vaupés|Aeródromo|1.5975|-70.7994|RESGUARDO INDIGENA|GOBERNACION DEL VAUPES|440|10|1650||620| 3423,000|||1A|Público|293|97|97001
MCG||MORICHAL|Papunahua|Vaupés|Aeródromo|1.9072|-70.7619|MUNICIPIO|MUNICIPIO|800|30|5500||648| 2989,000|||1B|Público|72|97|97777
MCH||MOCHUELO|Cravo Norte|Arauca|Aeródromo|||||||||||||||1|81|81220
MCJ|MCJ|MAICAO|Maicao|La Guajira|Aeródromo|11.3833|-72.2333|MUNICIPIO|MUNICIPIO|1600|30|12202||160||||3C|Público|26|44|44430
MCL||CAÑO COLORADO|Mitú|Vaupés|Aeródromo|0.365|-70.4433|RESGUARDO INDIGENA|GOBERNACION DEL VAUPES|500|15|5000||650| 3423,000|||1A|Público|313|97|97001
MCO||MACOCOBA|Puerto Carreño|Vichada|Aeródromo|||||||||||||||5|99|99001
MCP||CACHIPORRO|Mitú|Vaupés|Aeródromo|0.5542|-71.9264|RESGUARDO INDIGENA|GOBERNACION DEL VAUPES|670|10|12202||650| 3423,000|||1A|Público|188|97|97001
MDA||INGENIO INCAUCA (C.A)|Miranda|Cauca|Aeródromo|3.2687|-76.3337|INGENIO DEL CAUCA S.A.|INCAUCA.S.A. - ASOCAÑA|250|10|500||3314| 2955,000||2015-08-05|1A|Fumigación|99|19|19455
MDE|MDE|JOSE M. CORDOVA|Rionegro|Antioquia|Internacional|6.1645|-75.423|AEROCIVIL|EN CONCESION-SOACN(Sociedad Operadora de Aeropuertos Centro Norte)|3500|45|||6980|  605,000|||4E|Aerocivil|208122| 5| 5615
MDR||PIEDRA ÑI|Mitú|Vaupés|Aeródromo|-0.1089|-70.3272|RESGUARDO INDIGENA|GOBERNACION DEL VAUPES|420|10|5000||500| 3423,000|||1A|Público|1521|97|97001
MED|MND|MEDINA|Medina|Cundinamarca|Aeródromo|4.4841|-73.345|MUNICIPIO|MUNICIPIO|1060|15|5000||1500| 3660,000|||2A|Público|950|25|25438
MFR|MFB|MONFORT|Mitú|Vaupés|Aeródromo|0.625|-69.7494|RESGUARDO INDIGENA|GOBERNACION DEL VAUPES|620|20|12202||650| 3423,000|||1A|Público|798|97|97001
MFS|MFS|MIRAFLORES|Miraflores|Guaviare|Aeródromo|1.3377|-71.9507|MUNICIPIO|MUNICIPIO|1320|25|25000||730|   21,000|1957-01-30||3B|Público|4188|95|95200
MGN|MGN|BARACOA|Magangué|Bolívar|Aeródromo|9.2849|-74.8465|AEROCIVIL|AEROCIVIL|1410|20|33112||195|  352,000|1968-05-17||2B|Aerocivil|560|13|13430
MGO||SAN GERARDO|Mitú|Vaupés|Aeródromo|0.7697|-70.2847|RESGUARDO INDIGENA|GOBERNACION DEL VAUPES|410|15|1650||540| 3423,000|||1A|Público|205|97|97001
MGP||MAGUI PAYAN|Magüí|Nariño|Aeródromo|1.7742|-78.1914|MUNICIPIO|EL MUNICIPIO|680|10|5000||213| 4006,000|||1A|Público|1|52|52427
MGU||SAN MIGUEL|Mitú|Vaupés|Aeródromo|-0.0039|-70.4972|RESGUARDO INDIGENA|GOBERNACION DEL VAUPES|540|15|1650||650| 3423,000|||1A|Público|709|97|97001
MIB||BELEN DE INAMBU|Mitú|Vaupés|Aeródromo|0.4708|-70.1847|RESGUARDO INDIGENA|GOBERNACION DEL VAUPES|460|10|1650||650| 3423,000|||1A|Público|180|97|97001
MIC||IBACABA|Mitú|Vaupés|Aeródromo|0.9703|-69.213|RESGUARDO INDIGENA|GOBERNACION DEL VAUPES|440|15|1650||600|   45,000|||1A|Público|134|97|97001
MII||MANI|Maní|Casanare|Aeródromo|||||||||||||||20|85|85139
MIN||DUMACITA|Maní|Casanare|Aeródromo|||||||||||||||7|85|85139
MIS||SANTA ISABEL|Mitú|Vaupés|Aeródromo|-0.1178|-70.1931|RESGUARDO INDIGENA|GOBERNACION DEL VAUPES|330|10|1650||465| 3423,000|||1A|Público|486|97|97001
MIT||WACARICUARA|Mitú|Vaupés|Aeródromo|0.2|-70.225|MUNICIPIO|MUNICIPIO|850|25|12202||500|  984,000|||1A|Público|2113|97|97001
MKA||KAMANAOS|Mitú|Vaupés|Aeródromo|1.7261|-69.8453|RESGUARDO INDIGENA|GOBERNACION DEL VAUPES|400|15|1650||670| 3423,000|||1B|Público|856|97|97001
MLG||JERONIMO DE AGUAYO|Málaga|Santander|Aeródromo|6.7059|-72.7304|MUNICIPIO|MUNICIPIO|1000|16|5670||6705|   11,000|||2A|Público|9876|68|68432
MLR||TOLEMAIDA|Melgar|Tolima|Aeródromo|||||||||||||||3950|73|73449
MMP|MVP|SAN BERNARDO|Mompós|Bolívar|Aeródromo|9.2583|-74.4383|AEROCIVIL|AEROCIVIL|1175|14|16300||72|  352,000|1968-05-17||2A|Aerocivil|924|13|13468
MNI||YARUMITOS|Maní|Casanare|Aeródromo|||||||||||||||10|85|85139
MNO||LA GLORIA|Aguazul|Casanare|Aeródromo|5.0064|-72.3561|CARMEN SEDANO|PERENCO COLOMBIA LIMITED|540|18|5000||630| 6967,000|||1A|Privado|1540|85|85010
MOC||MONTELIBANO|Agustín Codazzi|Cesar|Aeródromo|||||||||||||||1|20|20013
MOQ||MOSQUERA|Mosquera|Nariño|Aeródromo|||||||||||||||5|52|52473
MOY||MONTERREY|Monterrey|Casanare|Aeródromo|||||||||||||||1|85|85162
MPI||PIRACUARA|Mitú|Vaupés|Aeródromo|-0.6703|-69.6514|RESGUARDO INDIGENA|GOBERNACION DEL VAUPES|540|10|12202||640| 3423,000|||1A|Público|863|97|97001
MPU||PACU|Mitú|Vaupés|Aeródromo|1.6308|-70.3639|RESGUARDO INDIGENA|GOBERNACION DEL VAUPES|540|10|1650||700| 3423,000|||1A|Público|242|97|97001
MQU|MQU|JOSE CELESTINO|San Sebastián de Mariquita|Tolima|Regional|5.2126|-74.8837|AEROCIVIL|AEROCIVIL|1790|45|||1531|   51,000|1968-01-24||2A|Aerocivil|1428|73|73443
MRF||LAGOS DEL DORADO|Miraflores|Guaviare|Aeródromo|||||||||||||||3|95|95200
MRI||MURINDO|Murindó|Antioquia|Aeródromo|6.9762|-76.8125|ALCALDIA|ALCALDIA|670|10|3500||23|||2013-12-12|1A|Público|481| 5| 5475
MSA||SAN ANTONIO|Mitú|Vaupés|Aeródromo|0.6797|-70.4375|RESGUARDO INDIGENA|GOBERNACION DEL VAUPES|340|10|1650||610| 3423,000|||1A|Público|331|97|97001
MSI||SANTA LUCIA|Mitú|Vaupés|Aeródromo|1.3825|-70.0067|RESGUARDO INDIGENA|GOBERNACION DEL VAUPES|415|15|3000||1020| 3423,000|||1A|Público|186|97|97001
MSN||SAN PABLO|Mitú|Vaupés|Aeródromo|||||||||||||||86|97|97001
MSO||SONAÑA|Mitú|Vaupés|Aeródromo|0.1308|-70.5792|RESGUARDO INDIGENA|GOBERNACION DEL VAUPES|700|15|5000||680| 3423,000|||1A|Público|657|97|97001
MSR||SANTA RITA|Mitú|Vaupés|Aeródromo|1.6528|-70.4097|RESGUARDO INDIGENA|GOBERNACION DEL VAUPES|400|10|1650||700| 3423,000|||1A|Público|237|97|97001
MTA||MUTATA|Mutatá|Antioquia|Aeródromo|7.2505|-76.4442|ALCALDIA|ALCALDIA|795|10|6000||397| 3660,000|||1A|Público|25| 5| 5480
MTB|MTB|EL PINDO|Montelíbano|Córdoba|Regional|7.9733|-75.4413|AEROCIVIL|AEROCIVIL|1100|26|12202||160| 3107,000|1981-04-08||2C|Aerocivil|1863|23|23466
MTC||PAPUNAGUA - PUERTO. SOLANO|Mitú|Vaupés|Aeródromo|1.9073|-70.7622|RESGUARDO INDIGENA|GOBERNACION DEL VAUPES|650|15|5000||492| 2994,000|||1A|Público|676|97|97001
MTI||TIQUIE|Mitú|Vaupés|Aeródromo|0.2342|-70.1689|RESGUARDO INDIGENA|GOBERNACION DEL VAUPES|530|15|5000||630| 3423,000|||1A|Público|2099|97|97001
MTN||BUENOS AIRES|Mitú|Vaupés|Aeródromo|0.0203|-71.0074|RESGUARDO INDIGENA|GOBERNACION DEL VAUPES|400|10|1650||620|   45,000|||1A|Público|1142|97|97001
MTP||MATUPA|San Martín|Meta|Aeródromo|||||||||||||||1565|50|50689
MTR|MTR|LOS GARZONES|Montería|Córdoba|Nacional|8.8239|-75.8261|AEROCIVIL|EN CONCESION-SOACN(Sociedad Operadora de Aeropuertos Centro Norte|1860|35|||19|  984,000|1987-02-02||4C|Aerocivil|70624|23|23001
MTS||TERESITA|Mitú|Vaupés|Aeródromo|0.7381|-69.4714|RESGUARDO INDIGENA|GOBERNACION DEL VAUPES|630|20|12202||620| 3423,000|||1A|Público|670|97|97001
MTT||CACHIPORRO|Mitú|Vaupés|Aeródromo|||||||||||||||188|97|97001
MTU||MATUPA|San Martín|Meta|Aeródromo|||||||||||||||1565|50|50689
MUR||TAPURUCUARA|Mitú|Vaupés|Aeródromo|1.4717|-70.1631|RESGUARDO INDIGENA|GOBERNACION DEL VAUPES|450|15|2700||880| 3423,000|||1A|Público|2123|97|97001
MUT||ATAHUALPA|Mutatá|Antioquia|Aeródromo|||||||||||||||7| 5| 5480
MUZ||MUZO|Muzo|Boyacá|Aeródromo|5.5472|-74.1128|MUNICIPIO|MUNICIPIO|800|16|6400||2952||||1A|Público||15|15480
MVA||VILLA GLADYS|Mitú|Vaupés|Aeródromo|0.2607|-71.3566|RESGUARDO INDIGENA|GOBERNACION DEL VAUPES|950|15|12202||493|   45,000|||1A|Público|237|97|97001
MVI||VILLA FATIMA|Mitú|Vaupés|Aeródromo|0.9744|-69.9569|RESGUARDO INDIGENA|GOBERNACION DEL VAUPES|510|10|1650||680| 3423,000|||1A|Público|411|97|97001
MVN||VILLA NUEVA|Mitú|Vaupés|Aeródromo|0.2732|-70.4491|RESGUARDO INDIGENA|GOBERNACION DEL VAUPES|375|12|1650||590|   45,000|||1A|Público|33|97|97001
MVP|MVP|FABIO A. LEON BENTLEY|Mitú|Vaupés|Regional|1.2535|-70.2341|MUNICIPIO|AEROCIVIL|1880|30|||680|   34,000|1958-02-19||3C|Aerocivil|35858|97|97001
MVU||LOS ANGELES|Mitú|Vaupés|Aeródromo|0.5767|-70.13|RESGUARDO INDIGENA|GOBERNACION DEL VAUPES|390|10|1650||640|   45,000|||1A|Público|256|97|97001
MWA||WAINAMBI|Mitú|Vaupés|Aeródromo|0.8667|-69.6172|RESGUARDO INDIGENA|GOBERNACION DEL VAUPES|360|10|1650||650| 3423,000|||1A|Público|181|97|97001
MWY||WASAY|Mitú|Vaupés|Aeródromo|1.6608|-70.0194|RESGUARDO INDIGENA|GOBERNACION DEL VAUPES|390|15|1650||700| 3423,000|||1A|Público|78|97|97001
MYA||YAPU|Mitú|Vaupés|Aeródromo|0.6217|-70.3517|RESGUARDO INDIGENA|GOBERNACION DEL VAUPES|540|20|5000||600| 3423,000|||1A|Público|2067|97|97001
MYY|VAB|YAVARATE|Mitú|Vaupés|Aeródromo|0.6117|-69.2072|RESGUARDO INDIGENA|GOBERNACION DEL VAUPES|490|15|1650||400| 3423,000|||1A|Público|585|97|97001
MZL|MZL|LA NUBIA|Manizales|Caldas|Nacional|5.0298|-75.4667|FODECAL|FODECAL|1000|15|15876||6866|  623,000|||2A|Público|38890|17|17001
NAR||PUERTO NARE|Puerto Nare|Antioquia|Aeródromo|6.2102|-74.5902|CEMENTOS ARGOS S.A.|CEMENTOS ARGOS S.A.|1000|20|9000||130| 4504,000||2015-09-12|2B|Privado|1298| 5| 5585
NAT||SAN GERMAN|Natagaima|Tolima|Aeródromo|||||||||||||||50|73|73483
NCC||LA REFORMA|Nunchía|Casanare|Aeródromo|5.4293|-72.163|JUAN BERNARDO SERRANO A.|JUAN B. SERRANO ARDILA|700|10|2000||308|  471,000||2016-04-09|1A|Fumigación|1|85|85225
NCI|NCI|NECOCLI|Necoclí|Antioquia|Aeródromo|8.45|-76.7833|MUNICIPIO|MUNICIPIO|833|15|5680||60| 5917,000|||1B|Público|979| 5| 5490
NFA||NUEVA FORTUNA|Necoclí|Antioquia|Aeródromo|8.6167|-76.6667|MUNICIPIO|MUNICIPIO|300|10|1300||550| 2989,000|||1A|Público|5| 5| 5490
NIA||LA NEVERA|Nunchía|Casanare|Aeródromo|5.5128|-72.1314|MAURICIO OLMOS|AGILL S.A.S.|800|10|3000||3100| 5053,000||2017-10-07|1A|Fumigación|1|85|85225
NQU|NQU|REYES MURILLO|Nuquí|Chocó|Regional|5.712|-77.2627|AEROCIVIL|AEROCIVIL|930|10|||13|    2,279|1975-08-21||1A|Aerocivil|13940|27|27495
NUA||LA CEIBA|Nunchía|Casanare|Aeródromo|5.4468|-72.0059|ISMENIA CARREÑO MARTINEZ|FUMIVILLA LTDA|900|10|3000||656| 2497,000|||1A|Fumigación||85|85225
NUC||LA FLORA|San Luis de Palenque|Casanare|Aeródromo|5.2097|-71.8106|GERARDO ZAMBRANO GUIO|PERENCO COLOMBIA LIMITED|640|15|12202||539|  933,000|||1A|Privado|1735|85|85325
NUE||NUEVO MUNDO|Trinidad|Casanare|Aeródromo|5.5318|-71.8239|INPROARROZ LTDA|SAO E.U.|800|10|2000||574|  703,000|||1A|Fumigación||85|85430
NUH||NUNCHIA LOS LIBERTADORES|Nunchía|Casanare|Aeródromo|||||||||||||||7|85|85225
NUN||EL DESECHO|Nunchía|Casanare|Aeródromo|5.6194|-72.0639|MIREYA MARTIN HUERTAS|EL MISMO|950|14|2000||820| 6057,000|||1A|Fumigación|1|85|85225
NUT||PALMAROSA|Nunchía|Casanare|Aeródromo|5.5663|-72.0669|FLORENCIO VARGAS PATIÑO|FIBA S.A.|800|10|2000||744| 1943,000||2016-05-09|1A|Fumigación||85|85225
NUV||NUEVA UNION- CA|Santa Ana|Magdalena|Aeródromo|9.6639|-73.9265|MAURICIO E. VASQUEZ M.|EL MISMO|290|10|600||196|  173,000||2018-02-04|UL|Privado|1|47|47707
NVA|NVA|BENITO SALAS|Neiva|Huila|Internacional|2.9499|-75.2941|AEROCIVIL|AEROCIVIL|1600|40|||1464|   57,000|1958-02-28||3C|Aerocivil|65289|41|41001
NYY||NUEVA YORK|Espinal|Tolima|Aeródromo|4.1333|-74.9|ALVARO ARAGON|FATOL LTDA.|700|10|2000||1000| 5836,000||2016-11-05|1A|Fumigación||73|73268
OBA||PRAGA|Obando|Valle del Cauca|Aeródromo|4.5889|-75.9681|ANGELA MARIA LEON LEMUS|ARFA S.A.|700|10|2000||3041| 4937,000|||1A|Fumigación|17|76|76497
OCE||EL VIEJO CARMEN|Orocué|Casanare|Aeródromo|4.8978|-71.5681|INVERSIONES LA COLONIA S.A.|LA CEIBA S.A.|685|10|2000||492| 1325,000||2018-06-11|1A|Privado|7|85|85230
OCU||BUENAVISTA|Orocué|Casanare|Aeródromo|4.8441|-71.5079|INVERSIONES LA COLONIA LTDA|LA CEIBA S.A.|900|15|2000||469| 1325,000||2018-06-11|1A|Privado|13|85|85230
OCV|OCV|AGUAS CLARAS|Ocaña|Norte de Santander|Regional|8.3156|-73.3583|AEROCIVIL|AEROCIVIL|1200|30|19000||3850| 2363,000|1971-09-03||2C|Aerocivil|2566|54|54498
OOR||SAN PABLO|Orocué|Casanare|Aeródromo|4.7856|-71.6231|FERNANDO ADOLFO REYES I.|FERNANDO ADOLFO REYES I.|1175|15|3000||472| 3214,000||2015-08-03|1A|Privado|20|85|85230
OPA||RIOPAILA|Zarzal|Valle del Cauca|Aeródromo|4.3174|-76.0975|RIOPAILA CASTILLA S.A.|RIOPAILA CASTILLA S.A.|800|18|5670||3179| 6471,000||2016-12-06|1A|Fumigación||76|76895
ORA||GUARILAQUE|Orocué|Casanare|Aeródromo|4.892|-71.5866|FERNANDO REYES ISAZA|PERENCO COLOMBIA LIMITED|600|18|5000||509| 7235,000||2017-01-03|1A|Privado|1570|85|85230
ORC|ORC|OROCUE|Orocué|Casanare|Aeródromo|4.7903|-71.3484|MUNICIPIO|MUNICIPIO|1480|25|22000||550| 3559,000|||1A|Público|5834|85|85230
ORE||EL CAIMAN|Orocué|Casanare|Aeródromo|4.855|-71.6811|INVERSIONES LOS CEDROS|INVERS. LOS CEDROS|700|16|3500||485| 5960,000|||1A|Privado|19|85|85230
ORH||ORIHUECA|Ciénaga|Magdalena|Aeródromo|10.8238|-74.1626|ELCIDA DIAZ GUERRERO|AEROPENORT LTDA.|720|10|3000||90| 6068,000|||1A|Fumigación|9|47|47189
ORI||ORITO|Orito|Putumayo|Aeródromo|0.6665|-76.8768|ECOPETROL|ECOPETROL|754|23|||1168| 2109,000|||1B|Privado|2231|86|86320
ORJ||LA CULEBRA|Orocué|Casanare|Aeródromo|4.9025|-71.6347|JUAN MAURICIO MEDINA NIÑO|JUAN MAURICIO MEDINA NIÑO|450|10|2000||429| 4938,000|||1A|Privado|17|85|85230
ORO||GUANAPALO|Orocué|Casanare|Aeródromo|5.1741|-71.4299|TOMAS ORTEGA DIAZ|PERENCO COLOMBIA LIMITED|600|18|5000||524| 7235,000||2017-01-03|1A|Privado|1360|85|85230
ORR||EL BORAL|Orocué|Casanare|Aeródromo|4.7384|-71.512|MARIA ANTONIA PAVIA DE R.|MARIA ANTONIA PAVIA DE R.|600|15|3000||442| 3215,000||2015-08-03|1A|Privado|1|85|85230
ORS||SARDINAS|Orocué|Casanare|Aeródromo|4.9858|-71.5057|IGNACIA GUALDRON|PERENCO COLOMBIA LIMITED|600|18|5000||521| 7235,000||2017-01-03|1A|Privado|9320|85|85230
ORU||EL MEDANO|Orocué|Casanare|Aeródromo|4.7621|-71.7184|ALBERTO MENDOZA Y OTRO|EL MISMO|885|15|4950||485|  828,000|2007-02-27||1A|Privado|6|85|85230
ORX||LA CANDELARIA|Orocué|Casanare|Aeródromo|5.1076|-71.6243|ANDRES REYES DIAZ|ANDRES REYES DIAZ|580|12|2000||515| 7087,000|||1A|Privado|5|85|85230
OTU|OTU|REMEDIOS OTU|Remedios|Antioquia|Regional|7.0106|-74.7156|AEROCIVIL|AEROCIVIL|950|12|||2058|  522,000|1968-07-03||1A|Aerocivil|8663| 5| 5604
PAL||PALACIO MUNICIPAL|Medellín|Antioquia|Aeródromo|||||||||||||||2| 5| 5001
PAO||PAOLA - CA|Restrepo|Meta|Aeródromo|4.1683|-73.5156|CONSTRUCCIONES GAMO LTDA|CLUB LA LIBELULA|180|10|500||1112| 2138,000|||UL|Privado||50|50606
PBE|PBE|MORELA|Puerto Berrío|Antioquia|Regional|6.4599|-74.4106|AEROCIVIL|AEROCIVIL|1290|24|||445|  522,000|||2C|Aerocivil|2460| 5| 5579
PBN||NICOLAS E.SOTO|Puerto Boyacá|Boyacá|Aeródromo|||||||||||||||34|15|15572
PBO||PUERTO BOLIVAR|Uribia|La Guajira|Regional|12.2215|-71.9843|CARBONES DEL CERREJON|CARBONES DEL CERREJON|1580|45|||98|  831,000|||3D|Privado|3507|44|44847
PBR||LA PONDEROSA|Paratebueno|Cundinamarca|Aeródromo|||||||||||||||75|25|25530
PCA||PACOA|Pacoa|Vaupés|Aeródromo|0.0667|-71.2083|CORREGIMIENTO|CORREGIMIENTO|800|18|12202||720| 3149,000|||1A|Público|358|97|97511
PCE||CUMARIBO|Puerto Carreño|Vichada|Regional|4.4464|-69.7815|GOBERNACION|GOBERNACION|900|15|26000||547|  407,000|||1A|Público|10527|99|99001
PCH||ALPES -PACHAQ.|Puerto López|Meta|Aeródromo|||||||||||||||1|50|50573
PCJ||PUERTO ALVIRA -CAÑO JABON|San Martín|Meta|Aeródromo|2.9029|-71.7496|JUNTA DE ORNATO|JUNTA DE ORNATO|1100|23|12202||550| 5712,000|||2C|Público|1124|50|50689
PCO||PARACO|Córdoba|Bolívar|Aeródromo|||||||||||||||35|13|13212
PCR|PCR|GERMAN OLANO|Puerto Carreño|Vichada|Regional|6.185|-67.4925|MUNICIPIO|AEROCIVIL|1800|30|||1915|  551,000|1968-07-10||3C|Aerocivil|6271|99|99001
PDE||LA VENGANZA|Paz de Ariporo|Casanare|Aeródromo|6.0226|-70.8976|WALTER F. GOMEZ ACOSTA|EL MISMO|570|12|4000||410||||1A|Privado|70|85|85250
PDR||LA COLONIA|Paz de Ariporo|Casanare|Aeródromo|5.7639|-71.5314|MILCIADES LUNA CUERVO|MUNICIPIO|670|15|2000||620| 6296,000||2012-12-08|1A|Público|12|85|85250
PEI|PEI|MATECAÑA|Pereira|Risaralda|Internacional|4.8128|-75.7393|MUNICIPIO|MUNICIPIO|2020|45|||4417|  522,000|||4D|Público|95765|66|66001
PET||PETROLEA|San José de Cúcuta|Norte de Santander|Aeródromo|8.4972|-72.5967|MINISTERIO DEFENSA|MINISTERIO DEFENSA|840|15|4000||164|  285,000|||2A|Público|4|54|54001
PFO||PUERTO PERALES|Puerto Triunfo|Antioquia|Aeródromo|5.9936|-74.5742|GOBERNACION|GOBERNACION|900|15|7000||475| 2989,000|||2A|Público|1062| 5| 5591
PGA||PRAGA|Obando|Valle del Cauca|Aeródromo|||||||||||||||17|76|76497
PGM||PUERTO GAITAN|Puerto Gaitán|Meta|Aeródromo|4.3031|-72.0855|MUNICIPIO|MUNICIPIO|1380|23|12202||150| 1861,000|||3C|Público|3103|50|50568
PGN||SABANETA|Puerto Gaitán|Meta|Aeródromo|||||||||||||||10|50|50568
PGO||EL RODEO|Puerto Gaitán|Meta|Aeródromo|||||||||||||||80|50|50568
PGP||LA PLATA PUERTO TRUJILLO|Puerto Gaitán|Meta|Aeródromo|3.4873|-71.3759|MUNICIPIO|MUNICIPIO|700|15|4500||623|   15,000|||1A|Público|1377|50|50568
PGT||MORELIA|Puerto Gaitán|Meta|Aeródromo|3.7504|-71.4561|META PETROLEUM LTD.|META PETROLEUM LTD.|1280|24|||617| 1738,000|||2C|Privado|30856|50|50568
PID||PUERTO INIRIDA|Inírida|Guainía|Aeródromo|||||||||||||||347|94|94001
PII||SAN FELIPE|Inírida|Guainía|Aeródromo|||||||||||||||82|94|94001
PIM|LPE|LA PRIMAVERA|La Primavera|Vichada|Aeródromo|5.4943|-70.4212|MUNICIPIO|MUNICIPIO|1740|18|12200||410| 1028,000|||2C|Público|6784|99|99524
PIP|RON|PAIPA JUAN JOSE RONDON|Paipa|Boyacá|Aeródromo|5.7644|-73.1057|AEROCIVIL|AEROCIVIL|1700|30|11400||8205|  984,000|1987-02-02||3C|Aerocivil|154|15|15516
PIV||LA PALESTINA|Pivijay|Magdalena|Aeródromo|10.5897|-74.2951|SAFUCO|SAFUCO|640|10|2000||82| 2612,000||2017-06-12|1A|Fumigación||47|47551
PJS||PAJONALES|Ambalema|Tolima|Aeródromo|4.7644|-74.8287|ORGANIZACIÓN PAJONALES S.A.|ORGANIZACIÓN PAJONALES S.A.|1100|15|4000||850|  390,000|||2A|Fumigación|1|73|73030
PLA|PLA|PLANADAS|Planadas|Tolima|Aeródromo|3.3|-75.7333|MUNICIPIO|EL MISMO|700|11|5670||3700| 3660,000|||1A|Público|16|73|73555
PLD||SAN ISIDRO|Puerto López|Meta|Aeródromo|4.1274|-73.2384|ARMANDO ROMERO PARRA|FARO LTDA.|720|10|2000||787| 2491,000||2017-06-12|1A|Fumigación|8|50|50573
PLE||BELLO HORIZONTE|Puerto López|Meta|Aeródromo|||||||||||||||1|50|50573
PLK||LA ESPERANZA|Puerto Libertador|Córdoba|Aeródromo|||||||||||||||3|23|23580
PLL||PUERTO LLERAS|Puerto Lleras|Meta|Aeródromo|3.2897|-73.3792|MUNICIPIO|MUNICIPIO|940|15|12202||800| 1148,000|||2C|Público|11|50|50577
PLN||PALONEGRO-NORTE|Agustín Codazzi|Cesar|Aeródromo|||||||||||||||1|20|20013
PLO||PALMASOLA|Puerto López|Meta|Aeródromo|4.1272|-73.0766|AVIAL LTDA|AVIAL LTDA.|900|20|2000||820| 3021,000|||1A|Fumigación|3|50|50573
PLP||PUERTO LOPEZ|Puerto López|Meta|Aeródromo|||||||||||||||1|50|50573
PLS||TOBASIA|Puerto López|Meta|Aeródromo|4.0786|-73.0794|FAGAN S. EN C.|FAGAN S. EN C.|730|18|2000||175| 4316,000|||1A|Fumigación|15|50|50573
PLT|PLT|LAS FLORES|Plato|Magdalena|Aeródromo|9.7985|-74.7831|AEROCIVIL|AEROCIVIL|1067|20|3500||86|  876,000|1968-03-08||2A|Aerocivil|298|47|47555
PMM||INGENIO MANUELITA|Palmira|Valle del Cauca|Aeródromo|3.5986|-76.306|INGENIO MANUELITA S.A.|ING.MANUELITA - ASOCAÑA|250|10|500||3366| 2960,000||2015-08-05|1A|Fumigación|2|76|76520
PMO||SAN LUIS|Palermo|Huila|Aeródromo|||||||||||||||1|41|41524
PNQ||PINOQUIA|Puerto Carreño|Vichada|Aeródromo|||||||||||||||6|99|99001
POL||POLONIA|Villavieja|Huila|Aeródromo|3.2667|-75.1681|INCORA LTDA|INCORA|700|13|2000||1350|  697,000|||1A|Público||41|41872
PPN|PPN|GUILLERMO LEON VALENCIA|Popayán|Cauca|Nacional|2.4542|-76.6099|AEROCIVIL|AEROCIVIL|1910|40|||5669|  455,000|1969-05-19||4C|Aerocivil|17602|19|19001
PPT||POTRERITO|Ibagué|Tolima|Aeródromo|4.3261|-75.0785|ARROCERA POTRERITO LASERNA|CRUZ VERDE|600|10|2000||2460| 4508,000||2015-09-03|1A|Fumigación|8|73|73001
PQE||PALANQUERO -GERMAN OLANO|Puerto Salgar|Cundinamarca|Aeródromo|5.4835|-74.6574|FAC|FAC.|2296|20|||553||||4B|Militar|126|25|25572
PRA||LA OPIA|Piedras|Tolima|Aeródromo|4.4484|-74.9623|DANIEL GOMEZ TAMAYO|CRUZ VERDE|630|10|4000||1929| 1839,000||2016-05-03|1A|Fumigación||73|73547
PRB||LA AURORA|Paratebueno|Cundinamarca|Aeródromo|4.3228|-73.2739|LILIANA CORONADO|SERV.AEREO DEL ORIENTE-SAO|800|10|2000||941|  391,000|||1A|Fumigación|1|25|25530
PRC||PUERTO RICO|Puerto Rico|Caquetá|Aeródromo|||||||||||||||27|18|18592
PRE||SAN JOSE DE OCUNE|Puerto Carreño|Vichada|Aeródromo|4.0822|-70.2539|CORREGIMIENTO|CORREGIMIENTO|720|20|5670||400| 2989,000|||1A|Público|1450|99|99001
PRI||PRIMERO DE MAYO|Paratebueno|Cundinamarca|Aeródromo|4.3347|-73.1439|SAUL E. OTALORA DAZA|COMERCIALIZADORA ECO|720|10|2000||709|  250,000|||1A|Fumigación|1|25|25530
PRJ|PCC|PUERTO RICO|Puerto Rico|Caquetá|Aeródromo|1.875|-75.1556|MUNICIPIO|MUNICIPIO|948|10|12202||750| 3660,000|||2A|Público|27|18|18592
PRL||NATALIA|Puerto López|Meta|Aeródromo|4.0698|-73.1805|MOLINOS INDUGRANOS|AEROTEC LTDA.|800|10|2000||715| 4945,000|||1A|Fumigación||50|50573
PRO||PORORO|Agustín Codazzi|Cesar|Aeródromo|9.935|-73.2687|PALMAS PORORO SAS|PALMAS PORORO SAS|900|18|6000||328|  276,000|||1A|Privado|6|20|20013
PRR||JIBICI|Cumaribo|Vichada|Aeródromo|4.8897|-68.3582|JORGE E. PINZON K.|JORGE E. PINZON K.|1100|15|5000||368| 5921,000||2015-11-07|1A|Privado|7|99|99773
PRT||PALMARITO|Yopal|Casanare|Aeródromo|||||||||||||||1|85|85001
PRU||ESTELIDA ARIGUANEY|Puerto Carreño|Vichada|Aeródromo|||||||||||||||1|99|99001
PSO|PSO|ANTONIO NARIÑO|Pasto|Nariño|Nacional|1.3964|-77.291|AEROCIVIL|AEROCIVIL|2177|40|||5896|   95,000|1957-04-24||4C|Aerocivil|23045|52|52001
PTA||PALESTINA|Pivijay|Magdalena|Aeródromo|||||||||||||||1|47|47551
PTC||LA VICTORIA|Cumaribo|Vichada|Aeródromo|3.8281|-70.5893|INSPECCION POLICIA|MUNICIPIO|750|10|2000||426| 4087,000|||1A|Público|1821|99|99773
PTE||LA REFORMA|Puerto López|Meta|Aeródromo|4.0625|-73.1483|SOCIEDAD DE ACTIVOS|FARO LTDA.|940|10|2000||940| 5961,000|||1A|Fumigación|28|50|50573
PTL|PTX|CONTADOR|Pitalito|Huila|Regional|1.8573|-76.0856|AEROCIVIL|AEROCIVIL|1500|19|||4221| 2090,000|1974-10-22||2B|Aerocivil|1251|41|41551
PTO||PIRIRI|Puerto Gaitán|Meta|Aeródromo|||||||||||||||30|50|50568
PTS||LA ESPERANZA|Puerto Salgar|Cundinamarca|Aeródromo|||||||||||||||7|25|25572
PTW||GEMELOS DORADOS|Puerto Wilches|Santander|Aeródromo|7.2466|-73.7723|MILTON A. SALAZAR REY|EL MISMO|850|15|5670||314| 6473,000|2013-11-19|2017-01-09|1A|Privado|242|68|68575
PTZ||YATAROS DE MELUA|Puerto López|Meta|Aeródromo|||||||||||||||1|50|50573
PUE||PUERTO RICO|Puerto Rico|Meta|Aeródromo|2.9419|-73.2039|MUNICIPIO|MUNICIPIO|1080|15|12202||800| 4022,000|||2A|Público|469|50|50590
PUL||GAVIOTAS|Fuente de Oro|Meta|Aeródromo|3.4633|-73.6022|MISAEL RODRIGUEZ CASTAÑEDA|FAGA LTDA|720|10|2000||987|   76,000|||1A|Fumigación|62|50|50287
PUU|PUU|TRES DE MAYO|Puerto Asís|Putumayo|Nacional|0.5054|-76.5008|AEROCIVIL|AEROCIVIL|1485|25|33112||809|  115,000|1965-09-02||3C|Aerocivil|18730|86|86568
PVA|PVA|EL EMBRUJO|Providencia|San Andrés islas|Nacional|13.3572|-81.3579|AEROCIVIL|AEROCIVIL|1050|18|||10|  338,000|1969-04-23||2B|Aerocivil|23333|88|88564
PVO||EL ALGODONAL|Pueblo Nuevo|Córdoba|Aeródromo|||||||||||||||35|23|23570
PWI||PUERTO WILCHES|Puerto Wilches|Santander|Aeródromo|||||||||||||||18|68|68575
PWT||PUERTO WILCHES|Puerto Wilches|Santander|Aeródromo|||||||||||||||18|68|68575
PZA|PZA|PAZ DE ARIPORO|Paz de Ariporo|Casanare|Aeródromo|5.8819|-71.883|AEROCIVIL|AEROCIVIL|1506|20|29000||878| 1591,000|1972-06-06||2B|Aerocivil|772|85|85250
PZI||VENECIA DE LAS GUAMAS|Paz de Ariporo|Casanare|Aeródromo|5.6882|-70.7378|MAURICIO MEDINA NIÑO|MAURICIO MEDINA NIÑO|570|15|2000||404| 5524,000||2017-12-04|1A|Privado|126|85|85250
PZR||CHAPARRITO|Paz de Ariporo|Casanare|Aeródromo|5.56|-71.2172|HERNAN BRAYDI|PERENCO COLOMBIA LIMITED|840|25|5670||450| 5603,000|||2B|Privado|5697|85|85250
QPM||FURATENA|Quípama|Boyacá|Aeródromo|5.5275|-74.1869|MUNICIPIO|MUNICIPIO|860|16|5670||3850|  390,000|||2B|Público|150|15|15580
QQA||VILLANUEVA|Villanueva|Casanare|Aeródromo|||||||||||||||2140|85|85440
RAV|RAV|CRAVO NORTE|Cravo Norte|Arauca|Aeródromo|6.3167|-70.2111|AEROCIVIL|AEROCIVIL|1122|18|12202||336|  343,000|1968-05-03||3C|Aerocivil|3504|81|81220
RCH|RCH|ALMIRANTE PADILLA|Riohacha|La Guajira|Internacional|11.5262|-72.9267|MUNICIPIO|AEROCIVIL -ORIENTE S.A.S.|1900|30|||43|  187,000|1987-02-02||4C|Aerocivil|6241|44|44001
RCN||RANCHO NARE|Puerto López|Meta|Aeródromo|||||||||||||||4|50|50573
RDN||RONDON|Arauca|Arauca|Aeródromo|6.2872|-71.1019|AEROCIVIL|MUNICIPIO -COMODATO|1300|30|12202||480| 1261,000|||2B|Aerocivil|1657|81|81001
RGR||RANCHO GRANDE|Ibagué|Tolima|Aeródromo|4.4419|-75.1167|ZORROZA Y SUAREZ LTDA.|CRUZ VERDE|760|10|2000||2877| 4508,000||2015-09-03|1A|Fumigación|18|73|73001
RVE|RVE|COLONIZADORES|Arauca|Arauca|Regional|6.9504|-71.8562|ECOPETROL|AEROCIVIL|800|30|||678| 4158,000|1983-09-25||3C|Aerocivil|6315|81|81001
SAA||SANTA ANA|Orocué|Casanare|Aeródromo|5.0875|-71.7902|FERNANDO REYES ISAZA Y CIA. S en C|FERNANDO REYES ISAZA Y CIA. S en C|600|15|3000||538| 5962,000|||1A|Privado|46|85|85230
SAD||EL BALSAMO|San Diego|Cesar|Aeródromo|||||||||||||||1|20|20750
SAM||SANTANA|Piedras|Tolima|Aeródromo|4.4083|-75.0244|MARIA CASAS MATIZ|CRUZ VERDE|640|10|2000||2290| 1735,000|||1A|Fumigación||73|73547
SAR||EL BOSQUE|San Alberto|Cesar|Aeródromo|||||||||||||||3|20|20710
SAS||SAN CARLOS|Maní|Casanare|Aeródromo|5.0096|-72.3237|WILSON GAMEZ M.|AVIOCOL LTDA.|850|10|3000||991| 5187,000||2016-10-03|1A|Fumigación||85|85139
SBD||LA MAGDALENA|Sabana de Torres|Santander|Aeródromo|||||||||||||||414|68|68655
SBN||ISCUANDE|Santa Bárbara|Nariño|Aeródromo|2.4483|-77.9813|MUNICIPIO|MUNICIPIO|540|15|2300||150| 1490,000|||1A|Público||52|52696
SBT|SNT|LAS CRUCES|Sabana de Torres|Santander|Aeródromo|7.3833|-73.5055|MUNICIPIO|MUNICIPIO|1202|20|12202||459| 9409,000|||2B|Público|2335|68|68655
SCA||SUESCUN|San Carlos de Guaroa|Meta|Aeródromo|||||||||||||||2|50|50680
SCG||EL PRADO|San Carlos de Guaroa|Meta|Aeródromo|||||||||||||||4|50|50680
SCM||LA CABAÑA|San Carlos de Guaroa|Meta|Aeródromo|||||||||||||||1|50|50680
SCS||SAN CARLOS DEL PLANAS|Santa Rosalía|Vichada|Aeródromo|4.0333|-70.8333|MUNICIPIO|MUNICIPIO|416|20|2500||400| 3660,000|||1A|Público|7|99|99624
